% program   : RTKLIB ver.2.4.3
% inp file  : abpo0010.22o
% inp file  : brdm0010.22p
% inp file  : igs21906.sp3
% inp file  : igs21906.clk
% obs start : 2022/01/01 00:00:00.0 GPST (week2190 518400.0s)
% obs end   : 2022/01/01 23:59:30.0 GPST (week2190 604770.0s)
% pos mode  : PPP Kinematic
% solution  : Forward
% elev mask : 10.0 deg
% dynamics  : off
% tidecorr  : on
% tropo opt : Estimate ZTD
% ephemeris : Precise
% navi sys  : GPS
% antenna1  :                       ( 0.0000  0.0000  0.0000)
%
% (x/y/z-ecef=WGS84,Q=1:fix,2:float,3:sbas,4:dgps,5:single,6:ppp,ns=# of satellites)
%  GPST                      x-ecef(m)      y-ecef(m)      z-ecef(m)   Q  ns   sdx(m)   sdy(m)   sdz(m)  sdxy(m)  sdyz(m)  sdzx(m) age(s)  ratio
2022/01/01 00:00:00.000   4097216.8974   4429120.2857  -2065770.7986   6   8   6.7969   7.6927   5.6866   5.8283  -4.3670  -4.5806   0.00    0.0
2022/01/01 00:00:30.000   4097216.9721   4429120.0621  -2065770.7252   6   8   4.5049   4.7010   3.6139   3.5795  -2.8697  -2.9636   0.00    0.0
2022/01/01 00:01:00.000   4097217.0834   4429119.9641  -2065770.9222   6   8   3.4168   3.2451   2.5727   2.4711  -2.1009  -2.1468   0.00    0.0
2022/01/01 00:01:30.000   4097217.2276   4429119.6943  -2065770.9344   6   8   2.7765   2.4120   1.9465   1.8363  -1.6335  -1.6592   0.00    0.0
2022/01/01 00:02:00.000   4097217.1163   4429119.4335  -2065771.0552   6   8   2.3603   1.9022   1.5473   1.4557  -1.3366  -1.3557   0.00    0.0
2022/01/01 00:02:30.000   4097217.1149   4429119.4201  -2065771.2168   6   8   2.0701   1.5739   1.2823   1.2213  -1.1407  -1.1611   0.00    0.0
2022/01/01 00:03:00.000   4097217.0627   4429119.3649  -2065771.2113   6   8   1.8549   1.3495   1.0987   1.0706  -1.0050  -1.0310   0.00    0.0
2022/01/01 00:03:30.000   4097216.9448   4429119.3542  -2065771.2133   6   8   1.6880   1.1885   0.9665   0.9694  -0.9060  -0.9399   0.00    0.0
2022/01/01 00:04:00.000   4097216.7702   4429119.3436  -2065771.2432   6   8   1.5533   1.0665   0.8671   0.8965  -0.8296  -0.8719   0.00    0.0
2022/01/01 00:04:30.000   4097216.6875   4429119.3197  -2065771.2620   6   8   1.4410   0.9698   0.7894   0.8402  -0.7679  -0.8184   0.00    0.0
2022/01/01 00:05:00.000   4097216.7103   4429119.3397  -2065771.2453   6   8   1.3494   0.8958   0.7290   0.7974  -0.7177  -0.7754   0.00    0.0
2022/01/01 00:05:30.000   4097216.8060   4429119.4121  -2065771.2762   6   8   1.2646   0.8267   0.6760   0.7562  -0.6723  -0.7367   0.00    0.0
2022/01/01 00:06:00.000   4097216.9194   4429119.3995  -2065771.2609   6   8   1.1902   0.7681   0.6314   0.7203  -0.6326  -0.7027   0.00    0.0
2022/01/01 00:06:30.000   4097217.0793   4429119.3799  -2065771.2543   6   8   1.1244   0.7173   0.5931   0.6880  -0.5973  -0.6721   0.00    0.0
2022/01/01 00:07:00.000   4097217.1493   4429119.3122  -2065771.2032   6   8   1.0652   0.6726   0.5596   0.6584  -0.5656  -0.6441   0.00    0.0
2022/01/01 00:07:30.000   4097217.2019   4429119.3008  -2065771.2155   6   8   1.0120   0.6330   0.5300   0.6312  -0.5370  -0.6183   0.00    0.0
2022/01/01 00:08:00.000   4097217.0431   4429119.2760  -2065771.1822   6   8   0.9639   0.5974   0.5036   0.6059  -0.5110  -0.5946   0.00    0.0
2022/01/01 00:08:30.000   4097216.9224   4429119.2439  -2065771.1498   6   8   0.9199   0.5654   0.4799   0.5822  -0.4873  -0.5726   0.00    0.0
2022/01/01 00:09:00.000   4097216.8438   4429119.2533  -2065771.1424   6   8   0.8798   0.5364   0.4586   0.5602  -0.4656  -0.5521   0.00    0.0
2022/01/01 00:09:30.000   4097216.8225   4429119.2936  -2065771.1635   6   8   0.8429   0.5100   0.4392   0.5396  -0.4456  -0.5330   0.00    0.0
2022/01/01 00:10:00.000   4097216.7767   4429119.2909  -2065771.1498   6   8   0.8113   0.4882   0.4223   0.5223  -0.4285  -0.5163   0.00    0.0
2022/01/01 00:10:30.000   4097216.7485   4429119.2793  -2065771.1335   6   8   0.7796   0.4654   0.4059   0.5036  -0.4112  -0.4994   0.00    0.0
2022/01/01 00:11:00.000   4097216.7071   4429119.2803  -2065771.1231   6   8   0.7503   0.4447   0.3909   0.4864  -0.3953  -0.4837   0.00    0.0
2022/01/01 00:11:30.000   4097216.6705   4429119.2842  -2065771.1236   6   8   0.7232   0.4257   0.3771   0.4702  -0.3806  -0.4690   0.00    0.0
2022/01/01 00:12:00.000   4097216.6699   4429119.3122  -2065771.1466   6   8   0.6980   0.4082   0.3644   0.4551  -0.3670  -0.4553   0.00    0.0
2022/01/01 00:12:30.000   4097216.6894   4429119.3293  -2065771.1644   6   8   0.6747   0.3920   0.3526   0.4409  -0.3544  -0.4424   0.00    0.0
2022/01/01 00:13:00.000   4097216.6952   4429119.3351  -2065771.1593   6   8   0.6529   0.3770   0.3417   0.4275  -0.3425  -0.4302   0.00    0.0
2022/01/01 00:13:30.000   4097216.6779   4429119.3339  -2065771.1466   6   8   0.6326   0.3630   0.3315   0.4148  -0.3315  -0.4187   0.00    0.0
2022/01/01 00:14:00.000   4097216.6337   4429119.2851  -2065771.1115   6   8   0.6135   0.3499   0.3219   0.4028  -0.3211  -0.4079   0.00    0.0
2022/01/01 00:14:30.000   4097216.5856   4429119.2460  -2065771.0818   6   8   0.5956   0.3377   0.3130   0.3915  -0.3113  -0.3976   0.00    0.0
2022/01/01 00:15:00.000   4097216.5432   4429119.2082  -2065771.0577   6   8   0.5804   0.3278   0.3052   0.3822  -0.3030  -0.3888   0.00    0.0
2022/01/01 00:15:30.000   4097216.5566   4429119.1941  -2065771.0542   6   8   0.5638   0.3163   0.2969   0.3712  -0.2940  -0.3791   0.00    0.0
2022/01/01 00:16:00.000   4097216.5748   4429119.1928  -2065771.0549   6   8   0.5482   0.3057   0.2892   0.3610  -0.2854  -0.3698   0.00    0.0
2022/01/01 00:16:30.000   4097216.5844   4429119.1848  -2065771.0487   6   7   0.5347   0.2958   0.2822   0.3516  -0.2775  -0.3618   0.00    0.0
2022/01/01 00:17:00.000   4097216.5913   4429119.1676  -2065771.0410   6   7   0.5210   0.2863   0.2754   0.3420  -0.2696  -0.3537   0.00    0.0
2022/01/01 00:17:30.000   4097216.5824   4429119.1571  -2065771.0348   6   7   0.5078   0.2773   0.2689   0.3328  -0.2621  -0.3457   0.00    0.0
2022/01/01 00:18:00.000   4097216.5913   4429119.1570  -2065771.0350   6   7   0.4952   0.2688   0.2626   0.3239  -0.2548  -0.3381   0.00    0.0
2022/01/01 00:18:30.000   4097216.6036   4429119.1555  -2065771.0389   6   7   0.4830   0.2607   0.2565   0.3152  -0.2478  -0.3305   0.00    0.0
2022/01/01 00:19:00.000   4097216.6201   4429119.1665  -2065771.0508   6   7   0.4711   0.2528   0.2505   0.3068  -0.2411  -0.3232   0.00    0.0
2022/01/01 00:19:30.000   4097216.6170   4429119.1563  -2065771.0481   6   7   0.4596   0.2453   0.2447   0.2986  -0.2345  -0.3159   0.00    0.0
2022/01/01 00:20:00.000   4097216.6228   4429119.1522  -2065771.0445   6   7   0.4497   0.2396   0.2398   0.2920  -0.2291  -0.3097   0.00    0.0
2022/01/01 00:20:30.000   4097216.6510   4429119.1797  -2065771.0620   6   7   0.4382   0.2319   0.2339   0.2835  -0.2225  -0.3023   0.00    0.0
2022/01/01 00:21:00.000   4097216.6615   4429119.1847  -2065771.0721   6   7   0.4272   0.2250   0.2283   0.2756  -0.2163  -0.2952   0.00    0.0
2022/01/01 00:21:30.000   4097216.6571   4429119.1932  -2065771.0747   6   7   0.4164   0.2184   0.2228   0.2678  -0.2103  -0.2881   0.00    0.0
2022/01/01 00:22:00.000   4097216.6382   4429119.1876  -2065771.0722   6   7   0.4059   0.2120   0.2174   0.2603  -0.2044  -0.2812   0.00    0.0
2022/01/01 00:22:30.000   4097216.6283   4429119.1850  -2065771.0769   6   7   0.3955   0.2059   0.2121   0.2528  -0.1986  -0.2743   0.00    0.0
2022/01/01 00:23:00.000   4097216.6407   4429119.1939  -2065771.0756   6   7   0.3853   0.2000   0.2069   0.2455  -0.1930  -0.2676   0.00    0.0
2022/01/01 00:23:30.000   4097216.6534   4429119.1923  -2065771.0739   6   7   0.3754   0.1943   0.2017   0.2384  -0.1875  -0.2609   0.00    0.0
2022/01/01 00:24:00.000   4097216.6462   4429119.1707  -2065771.0610   6   7   0.3655   0.1887   0.1966   0.2314  -0.1821  -0.2542   0.00    0.0
2022/01/01 00:24:30.000   4097216.6363   4429119.1575  -2065771.0525   6   7   0.3559   0.1834   0.1916   0.2244  -0.1769  -0.2476   0.00    0.0
2022/01/01 00:25:00.000   4097216.6417   4429119.1535  -2065771.0547   6   7   0.3477   0.1796   0.1875   0.2190  -0.1725  -0.2421   0.00    0.0
2022/01/01 00:25:30.000   4097216.6604   4429119.1565  -2065771.0642   6   7   0.3379   0.1739   0.1822   0.2118  -0.1672  -0.2353   0.00    0.0
2022/01/01 00:26:00.000   4097216.6964   4429119.1774  -2065771.0807   6   7   0.3286   0.1690   0.1774   0.2052  -0.1622  -0.2289   0.00    0.0
2022/01/01 00:26:30.000   4097216.7116   4429119.1840  -2065771.0907   6   7   0.3194   0.1642   0.1725   0.1987  -0.1573  -0.2225   0.00    0.0
2022/01/01 00:27:00.000   4097216.7001   4429119.1647  -2065771.0795   6   7   0.3104   0.1597   0.1678   0.1923  -0.1525  -0.2162   0.00    0.0
2022/01/01 00:27:30.000   4097216.6955   4429119.1713  -2065771.0813   6   7   0.3017   0.1553   0.1632   0.1862  -0.1479  -0.2101   0.00    0.0
2022/01/01 00:28:00.000   4097216.7127   4429119.1848  -2065771.0880   6   7   0.2931   0.1512   0.1587   0.1802  -0.1434  -0.2041   0.00    0.0
2022/01/01 00:28:30.000   4097216.7292   4429119.1955  -2065771.0966   6   7   0.2847   0.1472   0.1542   0.1743  -0.1390  -0.1982   0.00    0.0
2022/01/01 00:29:00.000   4097216.7216   4429119.1965  -2065771.0976   6   7   0.2766   0.1434   0.1499   0.1687  -0.1348  -0.1925   0.00    0.0
2022/01/01 00:29:30.000   4097216.6983   4429119.1877  -2065771.0880   6   7   0.2687   0.1398   0.1457   0.1632  -0.1307  -0.1868   0.00    0.0
2022/01/01 00:30:00.000   4097216.6900   4429119.1887  -2065771.0885   6   7   0.2622   0.1377   0.1424   0.1591  -0.1275  -0.1823   0.00    0.0
2022/01/01 00:30:30.000   4097216.6991   4429119.1901  -2065771.0934   6   7   0.2543   0.1333   0.1380   0.1534  -0.1233  -0.1766   0.00    0.0
2022/01/01 00:31:00.000   4097216.6921   4429119.1769  -2065771.0898   6   7   0.2468   0.1301   0.1341   0.1482  -0.1195  -0.1713   0.00    0.0
2022/01/01 00:31:30.000   4097216.6858   4429119.1733  -2065771.0913   6   7   0.2395   0.1270   0.1302   0.1433  -0.1159  -0.1661   0.00    0.0
2022/01/01 00:32:00.000   4097216.6769   4429119.1629  -2065771.0849   6   7   0.2326   0.1242   0.1265   0.1386  -0.1124  -0.1611   0.00    0.0
2022/01/01 00:32:30.000   4097216.6634   4429119.1380  -2065771.0800   6   7   0.2259   0.1215   0.1229   0.1340  -0.1090  -0.1562   0.00    0.0
2022/01/01 00:33:00.000   4097216.6746   4429119.1581  -2065771.0889   6   7   0.2194   0.1195   0.1195   0.1298  -0.1060  -0.1516   0.00    0.0
2022/01/01 00:33:30.000   4097216.6726   4429119.1565  -2065771.0857   6   7   0.2131   0.1166   0.1160   0.1254  -0.1028  -0.1470   0.00    0.0
2022/01/01 00:34:00.000   4097216.6663   4429119.1528  -2065771.0850   6   7   0.2070   0.1143   0.1128   0.1214  -0.0998  -0.1427   0.00    0.0
2022/01/01 00:34:30.000   4097216.6619   4429119.1726  -2065771.0905   6   7   0.2012   0.1123   0.1097   0.1176  -0.0970  -0.1384   0.00    0.0
2022/01/01 00:35:00.000   4097216.6593   4429119.1653  -2065771.0985   6   7   0.1965   0.1116   0.1073   0.1149  -0.0949  -0.1351   0.00    0.0
2022/01/01 00:35:30.000   4097216.6699   4429119.1781  -2065771.1071   6   7   0.1906   0.1087   0.1040   0.1107  -0.0921  -0.1308   0.00    0.0
2022/01/01 00:36:00.000   4097216.6811   4429119.1933  -2065771.1139   6   7   0.1852   0.1069   0.1011   0.1072  -0.0895  -0.1269   0.00    0.0
2022/01/01 00:36:30.000   4097216.6911   4429119.1861  -2065771.1187   6   7   0.1801   0.1052   0.0984   0.1039  -0.0871  -0.1231   0.00    0.0
2022/01/01 00:37:00.000   4097216.6906   4429119.1669  -2065771.1159   6   7   0.1751   0.1037   0.0957   0.1007  -0.0848  -0.1196   0.00    0.0
2022/01/01 00:37:30.000   4097216.6948   4429119.1621  -2065771.1171   6   7   0.1704   0.1023   0.0932   0.0976  -0.0826  -0.1161   0.00    0.0
2022/01/01 00:38:00.000   4097216.7101   4429119.1773  -2065771.1265   6   7   0.1658   0.1010   0.0907   0.0947  -0.0806  -0.1128   0.00    0.0
2022/01/01 00:38:30.000   4097216.7225   4429119.1852  -2065771.1289   6   7   0.1614   0.0997   0.0884   0.0919  -0.0786  -0.1096   0.00    0.0
2022/01/01 00:39:00.000   4097216.7239   4429119.1778  -2065771.1285   6   7   0.1572   0.0986   0.0861   0.0893  -0.0768  -0.1065   0.00    0.0
2022/01/01 00:39:30.000   4097216.7304   4429119.1841  -2065771.1336   6   7   0.1531   0.0975   0.0839   0.0868  -0.0750  -0.1035   0.00    0.0
2022/01/01 00:40:00.000   4097216.7386   4429119.1895  -2065771.1384   6   7   0.1501   0.0978   0.0825   0.0855  -0.0738  -0.1012   0.00    0.0
2022/01/01 00:40:30.000   4097216.7429   4429119.1843  -2065771.1436   6   7   0.1459   0.0958   0.0800   0.0824  -0.0719  -0.0982   0.00    0.0
2022/01/01 00:41:00.000   4097216.7532   4429119.1970  -2065771.1522   6   7   0.1422   0.0949   0.0781   0.0801  -0.0703  -0.0955   0.00    0.0
2022/01/01 00:41:30.000   4097216.7596   4429119.2069  -2065771.1576   6   7   0.1386   0.0942   0.0762   0.0779  -0.0688  -0.0928   0.00    0.0
2022/01/01 00:42:00.000   4097216.7537   4429119.2011  -2065771.1622   6   7   0.1352   0.0934   0.0744   0.0759  -0.0674  -0.0903   0.00    0.0
2022/01/01 00:42:30.000   4097216.7540   4429119.2049  -2065771.1645   6   7   0.1319   0.0928   0.0726   0.0739  -0.0661  -0.0879   0.00    0.0
2022/01/01 00:43:00.000   4097216.7587   4429119.2085  -2065771.1701   6   7   0.1288   0.0922   0.0710   0.0721  -0.0649  -0.0856   0.00    0.0
2022/01/01 00:43:30.000   4097216.7620   4429119.2173  -2065771.1780   6   7   0.1258   0.0917   0.0694   0.0704  -0.0638  -0.0834   0.00    0.0
2022/01/01 00:44:00.000   4097216.7653   4429119.2243  -2065771.1770   6   7   0.1230   0.0912   0.0678   0.0687  -0.0626  -0.0813   0.00    0.0
2022/01/01 00:44:30.000   4097216.7610   4429119.2138  -2065771.1751   6   7   0.1202   0.0908   0.0664   0.0671  -0.0616  -0.0792   0.00    0.0
2022/01/01 00:45:00.000   4097216.7475   4429119.2013  -2065771.1736   6   7   0.1183   0.0917   0.0656   0.0669  -0.0612  -0.0779   0.00    0.0
2022/01/01 00:45:30.000   4097216.7389   4429119.2077  -2065771.1713   6   7   0.1153   0.0899   0.0638   0.0644  -0.0598  -0.0756   0.00    0.0
2022/01/01 00:46:00.000   4097216.7333   4429119.2067  -2065771.1706   6   7   0.1128   0.0896   0.0624   0.0630  -0.0589  -0.0737   0.00    0.0
2022/01/01 00:46:30.000   4097216.7406   4429119.2126  -2065771.1746   6   7   0.1103   0.0893   0.0612   0.0617  -0.0581  -0.0720   0.00    0.0
2022/01/01 00:47:00.000   4097216.7389   4429119.2150  -2065771.1719   6   7   0.1080   0.0890   0.0600   0.0604  -0.0573  -0.0702   0.00    0.0
2022/01/01 00:47:30.000   4097216.7410   4429119.2232  -2065771.1721   6   7   0.1058   0.0888   0.0587   0.0592  -0.0565  -0.0685   0.00    0.0
2022/01/01 00:48:00.000   4097216.7351   4429119.2228  -2065771.1680   6   7   0.1037   0.0886   0.0577   0.0581  -0.0558  -0.0670   0.00    0.0
2022/01/01 00:48:30.000   4097216.7248   4429119.2198  -2065771.1661   6   7   0.1016   0.0885   0.0566   0.0570  -0.0552  -0.0655   0.00    0.0
2022/01/01 00:49:00.000   4097216.7064   4429119.2091  -2065771.1601   6   7   0.0996   0.0883   0.0556   0.0560  -0.0546  -0.0640   0.00    0.0
2022/01/01 00:49:30.000   4097216.6949   4429119.2000  -2065771.1565   6   7   0.0978   0.0881   0.0546   0.0550  -0.0540  -0.0626   0.00    0.0
2022/01/01 00:50:00.000   4097216.6951   4429119.2058  -2065771.1534   6   7   0.0967   0.0893   0.0544   0.0554  -0.0540  -0.0618   0.00    0.0
2022/01/01 00:50:30.000   4097216.6953   4429119.2046  -2065771.1552   6   7   0.0944   0.0880   0.0529   0.0534  -0.0530  -0.0600   0.00    0.0
2022/01/01 00:51:00.000   4097216.7007   4429119.2060  -2065771.1543   6   7   0.0927   0.0879   0.0520   0.0525  -0.0525  -0.0588   0.00    0.0
2022/01/01 00:51:30.000   4097216.6907   4429119.1909  -2065771.1474   6   7   0.0910   0.0877   0.0512   0.0516  -0.0520  -0.0575   0.00    0.0
2022/01/01 00:52:00.000   4097216.6782   4429119.1783  -2065771.1446   6   7   0.0894   0.0877   0.0504   0.0509  -0.0516  -0.0563   0.00    0.0
2022/01/01 00:52:30.000   4097216.6759   4429119.1886  -2065771.1459   6   7   0.0879   0.0877   0.0496   0.0502  -0.0512  -0.0552   0.00    0.0
2022/01/01 00:53:00.000   4097216.6685   4429119.1925  -2065771.1463   6   7   0.0865   0.0877   0.0488   0.0496  -0.0508  -0.0541   0.00    0.0
2022/01/01 00:53:30.000   4097216.6709   4429119.1971  -2065771.1476   6   7   0.0851   0.0876   0.0482   0.0488  -0.0505  -0.0530   0.00    0.0
2022/01/01 00:54:00.000   4097216.6621   4429119.1818  -2065771.1428   6   7   0.0837   0.0876   0.0475   0.0483  -0.0501  -0.0520   0.00    0.0
2022/01/01 00:54:30.000   4097216.6632   4429119.1822  -2065771.1431   6   7   0.0825   0.0875   0.0468   0.0477  -0.0498  -0.0510   0.00    0.0
2022/01/01 00:55:00.000   4097216.6549   4429119.1712  -2065771.1409   6   7   0.0822   0.0889   0.0470   0.0488  -0.0503  -0.0508   0.00    0.0
2022/01/01 00:55:30.000   4097216.6497   4429119.1628  -2065771.1372   6   7   0.0801   0.0874   0.0457   0.0467  -0.0492  -0.0493   0.00    0.0
2022/01/01 00:56:00.000   4097216.6507   4429119.1602  -2065771.1356   6   7   0.0790   0.0873   0.0451   0.0462  -0.0489  -0.0484   0.00    0.0
2022/01/01 00:56:30.000   4097216.6465   4429119.1647  -2065771.1397   6   7   0.0778   0.0873   0.0445   0.0457  -0.0487  -0.0475   0.00    0.0
2022/01/01 00:57:00.000   4097216.6440   4429119.1688  -2065771.1370   6   7   0.0767   0.0872   0.0439   0.0451  -0.0484  -0.0467   0.00    0.0
2022/01/01 00:57:30.000   4097216.6489   4429119.1823  -2065771.1410   6   7   0.0757   0.0871   0.0434   0.0447  -0.0481  -0.0459   0.00    0.0
2022/01/01 00:58:00.000   4097216.6498   4429119.1858  -2065771.1442   6   7   0.0747   0.0870   0.0429   0.0442  -0.0479  -0.0451   0.00    0.0
2022/01/01 00:58:30.000   4097216.6482   4429119.1768  -2065771.1446   6   7   0.0737   0.0869   0.0424   0.0438  -0.0476  -0.0443   0.00    0.0
2022/01/01 00:59:00.000   4097216.6520   4429119.1710  -2065771.1420   6   7   0.0728   0.0868   0.0419   0.0435  -0.0474  -0.0436   0.00    0.0
2022/01/01 00:59:30.000   4097216.6518   4429119.1673  -2065771.1413   6   7   0.0719   0.0866   0.0415   0.0431  -0.0471  -0.0429   0.00    0.0
2022/01/01 01:00:00.000   4097216.6484   4429119.1666  -2065771.1408   6   7   0.0720   0.0879   0.0419   0.0445  -0.0477  -0.0430   0.00    0.0
2022/01/01 01:00:30.000   4097216.6366   4429119.1574  -2065771.1417   6   7   0.0703   0.0860   0.0406   0.0423  -0.0465  -0.0416   0.00    0.0
2022/01/01 01:01:00.000   4097216.6362   4429119.1638  -2065771.1420   6   7   0.0695   0.0858   0.0402   0.0420  -0.0463  -0.0410   0.00    0.0
2022/01/01 01:01:30.000   4097216.6349   4429119.1672  -2065771.1420   6   7   0.0687   0.0857   0.0397   0.0417  -0.0461  -0.0404   0.00    0.0
2022/01/01 01:02:00.000   4097216.6341   4429119.1671  -2065771.1388   6   7   0.0679   0.0853   0.0393   0.0412  -0.0458  -0.0397   0.00    0.0
2022/01/01 01:02:30.000   4097216.6302   4429119.1605  -2065771.1361   6   7   0.0672   0.0851   0.0389   0.0410  -0.0455  -0.0391   0.00    0.0
2022/01/01 01:03:00.000   4097216.6306   4429119.1542  -2065771.1381   6   7   0.0665   0.0849   0.0386   0.0407  -0.0453  -0.0386   0.00    0.0
2022/01/01 01:03:30.000   4097216.6273   4429119.1532  -2065771.1362   6   7   0.0658   0.0847   0.0382   0.0404  -0.0450  -0.0380   0.00    0.0
2022/01/01 01:04:00.000   4097216.6257   4429119.1545  -2065771.1392   6   7   0.0652   0.0844   0.0378   0.0401  -0.0447  -0.0374   0.00    0.0
2022/01/01 01:04:30.000   4097216.6228   4429119.1607  -2065771.1400   6   8   0.0645   0.0841   0.0375   0.0399  -0.0446  -0.0370   0.00    0.0
2022/01/01 01:05:00.000   4097216.6190   4429119.1694  -2065771.1378   6   8   0.0637   0.0824   0.0379   0.0380  -0.0442  -0.0366   0.00    0.0
2022/01/01 01:05:30.000   4097216.6191   4429119.1731  -2065771.1420   6   8   0.0618   0.0797   0.0365   0.0346  -0.0426  -0.0350   0.00    0.0
2022/01/01 01:06:00.000   4097216.6196   4429119.1843  -2065771.1428   6   8   0.0609   0.0786   0.0361   0.0334  -0.0420  -0.0344   0.00    0.0
2022/01/01 01:06:30.000   4097216.6168   4429119.1773  -2065771.1414   6   8   0.0602   0.0776   0.0357   0.0325  -0.0415  -0.0337   0.00    0.0
2022/01/01 01:07:00.000   4097216.6199   4429119.1797  -2065771.1423   6   8   0.0595   0.0767   0.0353   0.0317  -0.0410  -0.0332   0.00    0.0
2022/01/01 01:07:30.000   4097216.6141   4429119.1747  -2065771.1447   6   8   0.0589   0.0758   0.0350   0.0310  -0.0404  -0.0326   0.00    0.0
2022/01/01 01:08:00.000   4097216.6115   4429119.1723  -2065771.1429   6   8   0.0583   0.0748   0.0346   0.0304  -0.0400  -0.0321   0.00    0.0
2022/01/01 01:08:30.000   4097216.6166   4429119.1752  -2065771.1459   6   9   0.0578   0.0740   0.0343   0.0298  -0.0395  -0.0316   0.00    0.0
2022/01/01 01:09:00.000   4097216.6133   4429119.1709  -2065771.1477   6   9   0.0570   0.0723   0.0334   0.0283  -0.0382  -0.0306   0.00    0.0
2022/01/01 01:09:30.000   4097216.6050   4429119.1614  -2065771.1462   6   9   0.0563   0.0710   0.0329   0.0272  -0.0373  -0.0299   0.00    0.0
2022/01/01 01:10:00.000   4097216.6058   4429119.1609  -2065771.1442   6   9   0.0567   0.0708   0.0332   0.0280  -0.0371  -0.0300   0.00    0.0
2022/01/01 01:10:30.000   4097216.6018   4429119.1604  -2065771.1451   6   9   0.0553   0.0689   0.0320   0.0259  -0.0360  -0.0289   0.00    0.0
2022/01/01 01:11:00.000   4097216.6124   4429119.1753  -2065771.1512   6   9   0.0549   0.0679   0.0316   0.0255  -0.0353  -0.0284   0.00    0.0
2022/01/01 01:11:30.000   4097216.6130   4429119.1800  -2065771.1441   6   8   0.0581   0.0672   0.0312   0.0277  -0.0348  -0.0284   0.00    0.0
2022/01/01 01:12:00.000   4097216.6054   4429119.1769  -2065771.1432   6   8   0.0576   0.0666   0.0309   0.0269  -0.0343  -0.0277   0.00    0.0
2022/01/01 01:12:30.000   4097216.6162   4429119.1982  -2065771.1487   6   8   0.0570   0.0660   0.0306   0.0261  -0.0338  -0.0272   0.00    0.0
2022/01/01 01:13:00.000   4097216.6124   4429119.1974  -2065771.1472   6   8   0.0566   0.0655   0.0303   0.0256  -0.0334  -0.0269   0.00    0.0
2022/01/01 01:13:30.000   4097216.6171   4429119.1980  -2065771.1490   6   8   0.0561   0.0649   0.0299   0.0250  -0.0331  -0.0264   0.00    0.0
2022/01/01 01:14:00.000   4097216.6107   4429119.1924  -2065771.1524   6   8   0.0557   0.0644   0.0296   0.0246  -0.0326  -0.0260   0.00    0.0
2022/01/01 01:14:30.000   4097216.6061   4429119.1868  -2065771.1494   6   8   0.0553   0.0639   0.0294   0.0241  -0.0322  -0.0257   0.00    0.0
2022/01/01 01:15:00.000   4097216.6000   4429119.1771  -2065771.1483   6   8   0.0562   0.0642   0.0298   0.0256  -0.0325  -0.0260   0.00    0.0
2022/01/01 01:15:30.000   4097216.6090   4429119.1857  -2065771.1542   6   8   0.0544   0.0628   0.0289   0.0232  -0.0315  -0.0250   0.00    0.0
2022/01/01 01:16:00.000   4097216.6231   4429119.1962  -2065771.1571   6   8   0.0540   0.0622   0.0285   0.0229  -0.0312  -0.0247   0.00    0.0
2022/01/01 01:16:30.000   4097216.6107   4429119.1826  -2065771.1529   6   8   0.0537   0.0618   0.0283   0.0227  -0.0308  -0.0244   0.00    0.0
2022/01/01 01:17:00.000   4097216.6122   4429119.1877  -2065771.1557   6   8   0.0532   0.0613   0.0281   0.0224  -0.0304  -0.0240   0.00    0.0
2022/01/01 01:17:30.000   4097216.6036   4429119.1847  -2065771.1528   6   8   0.0529   0.0608   0.0279   0.0223  -0.0301  -0.0239   0.00    0.0
2022/01/01 01:18:00.000   4097216.6166   4429119.2006  -2065771.1553   6   8   0.0524   0.0603   0.0276   0.0221  -0.0299  -0.0236   0.00    0.0
2022/01/01 01:18:30.000   4097216.6089   4429119.1929  -2065771.1523   6   8   0.0522   0.0598   0.0274   0.0221  -0.0296  -0.0234   0.00    0.0
2022/01/01 01:19:00.000   4097216.6099   4429119.2059  -2065771.1544   6   8   0.0518   0.0593   0.0272   0.0220  -0.0292  -0.0231   0.00    0.0
2022/01/01 01:19:30.000   4097216.6075   4429119.2073  -2065771.1590   6   8   0.0514   0.0588   0.0270   0.0220  -0.0290  -0.0229   0.00    0.0
2022/01/01 01:20:00.000   4097216.6137   4429119.2110  -2065771.1587   6   8   0.0524   0.0592   0.0274   0.0239  -0.0292  -0.0234   0.00    0.0
2022/01/01 01:20:30.000   4097216.6089   4429119.2051  -2065771.1580   6   8   0.0507   0.0578   0.0266   0.0219  -0.0283  -0.0224   0.00    0.0
2022/01/01 01:21:00.000   4097216.6102   4429119.2018  -2065771.1621   6   8   0.0503   0.0573   0.0265   0.0219  -0.0281  -0.0223   0.00    0.0
2022/01/01 01:21:30.000   4097216.6106   4429119.2020  -2065771.1613   6   8   0.0500   0.0568   0.0262   0.0219  -0.0278  -0.0222   0.00    0.0
2022/01/01 01:22:00.000   4097216.6121   4429119.1988  -2065771.1622   6   8   0.0496   0.0564   0.0261   0.0220  -0.0276  -0.0220   0.00    0.0
2022/01/01 01:22:30.000   4097216.6255   4429119.2171  -2065771.1708   6   8   0.0493   0.0559   0.0260   0.0221  -0.0273  -0.0218   0.00    0.0
2022/01/01 01:23:00.000   4097216.6182   4429119.2212  -2065771.1690   6   8   0.0490   0.0555   0.0258   0.0222  -0.0270  -0.0217   0.00    0.0
2022/01/01 01:23:30.000   4097216.6102   4429119.2181  -2065771.1662   6   8   0.0487   0.0550   0.0257   0.0224  -0.0267  -0.0216   0.00    0.0
2022/01/01 01:24:00.000   4097216.6076   4429119.2226  -2065771.1666   6   8   0.0484   0.0545   0.0254   0.0224  -0.0265  -0.0215   0.00    0.0
2022/01/01 01:24:30.000   4097216.6013   4429119.2156  -2065771.1586   6   8   0.0481   0.0541   0.0254   0.0225  -0.0263  -0.0214   0.00    0.0
2022/01/01 01:25:00.000   4097216.5944   4429119.2125  -2065771.1582   6   8   0.0492   0.0547   0.0259   0.0248  -0.0266  -0.0221   0.00    0.0
2022/01/01 01:25:30.000   4097216.5981   4429119.2162  -2065771.1629   6   8   0.0475   0.0532   0.0251   0.0228  -0.0258  -0.0211   0.00    0.0
2022/01/01 01:26:00.000   4097216.5994   4429119.2213  -2065771.1589   6   8   0.0471   0.0528   0.0249   0.0229  -0.0256  -0.0210   0.00    0.0
2022/01/01 01:26:30.000   4097216.5988   4429119.2159  -2065771.1652   6   8   0.0469   0.0525   0.0249   0.0230  -0.0254  -0.0209   0.00    0.0
2022/01/01 01:27:00.000   4097216.5997   4429119.2251  -2065771.1660   6   8   0.0466   0.0520   0.0248   0.0232  -0.0253  -0.0209   0.00    0.0
2022/01/01 01:27:30.000   4097216.6044   4429119.2316  -2065771.1671   6   8   0.0464   0.0517   0.0246   0.0235  -0.0250  -0.0208   0.00    0.0
2022/01/01 01:28:00.000   4097216.5937   4429119.2233  -2065771.1726   6   8   0.0461   0.0513   0.0245   0.0236  -0.0249  -0.0207   0.00    0.0
2022/01/01 01:28:30.000   4097216.5966   4429119.2238  -2065771.1727   6   8   0.0458   0.0510   0.0244   0.0237  -0.0246  -0.0207   0.00    0.0
2022/01/01 01:29:00.000   4097216.5881   4429119.2184  -2065771.1670   6   8   0.0455   0.0506   0.0243   0.0238  -0.0245  -0.0205   0.00    0.0
2022/01/01 01:29:30.000   4097216.5869   4429119.2213  -2065771.1679   6   8   0.0453   0.0502   0.0243   0.0240  -0.0243  -0.0205   0.00    0.0
2022/01/01 01:30:00.000   4097216.5944   4429119.2401  -2065771.1684   6   8   0.0465   0.0509   0.0247   0.0259  -0.0246  -0.0212   0.00    0.0
2022/01/01 01:30:30.000   4097216.5991   4429119.2544  -2065771.1675   6   8   0.0446   0.0493   0.0240   0.0238  -0.0239  -0.0203   0.00    0.0
2022/01/01 01:31:00.000   4097216.5964   4429119.2572  -2065771.1715   6   8   0.0444   0.0490   0.0240   0.0240  -0.0238  -0.0203   0.00    0.0
2022/01/01 01:31:30.000   4097216.5940   4429119.2555  -2065771.1693   6   8   0.0442   0.0487   0.0239   0.0241  -0.0236  -0.0203   0.00    0.0
2022/01/01 01:32:00.000   4097216.5951   4429119.2488  -2065771.1713   6   8   0.0440   0.0484   0.0238   0.0243  -0.0235  -0.0202   0.00    0.0
2022/01/01 01:32:30.000   4097216.5877   4429119.2462  -2065771.1745   6   8   0.0438   0.0481   0.0237   0.0245  -0.0233  -0.0203   0.00    0.0
2022/01/01 01:33:00.000   4097216.5908   4429119.2400  -2065771.1768   6   8   0.0436   0.0478   0.0237   0.0245  -0.0232  -0.0202   0.00    0.0
2022/01/01 01:33:30.000   4097216.5934   4429119.2466  -2065771.1739   6   8   0.0434   0.0475   0.0236   0.0247  -0.0230  -0.0202   0.00    0.0
2022/01/01 01:34:00.000   4097216.5880   4429119.2495  -2065771.1722   6   8   0.0432   0.0473   0.0236   0.0248  -0.0230  -0.0203   0.00    0.0
2022/01/01 01:34:30.000   4097216.5915   4429119.2493  -2065771.1750   6   8   0.0431   0.0470   0.0236   0.0250  -0.0229  -0.0201   0.00    0.0
2022/01/01 01:35:00.000   4097216.5901   4429119.2514  -2065771.1715   6   8   0.0442   0.0478   0.0242   0.0267  -0.0235  -0.0208   0.00    0.0
2022/01/01 01:35:30.000   4097216.5796   4429119.2442  -2065771.1735   6   8   0.0427   0.0464   0.0234   0.0251  -0.0227  -0.0201   0.00    0.0
2022/01/01 01:36:00.000   4097216.5841   4429119.2519  -2065771.1734   6   8   0.0426   0.0462   0.0235   0.0253  -0.0226  -0.0201   0.00    0.0
2022/01/01 01:36:30.000   4097216.5777   4429119.2539  -2065771.1693   6   8   0.0425   0.0460   0.0235   0.0253  -0.0226  -0.0201   0.00    0.0
2022/01/01 01:37:00.000   4097216.5798   4429119.2535  -2065771.1771   6   8   0.0423   0.0458   0.0234   0.0255  -0.0224  -0.0202   0.00    0.0
2022/01/01 01:37:30.000   4097216.5783   4429119.2539  -2065771.1771   6   8   0.0421   0.0455   0.0233   0.0256  -0.0223  -0.0201   0.00    0.0
2022/01/01 01:38:00.000   4097216.5829   4429119.2587  -2065771.1767   6   8   0.0419   0.0453   0.0234   0.0256  -0.0223  -0.0200   0.00    0.0
2022/01/01 01:38:30.000   4097216.5865   4429119.2689  -2065771.1766   6   8   0.0418   0.0451   0.0232   0.0257  -0.0221  -0.0201   0.00    0.0
2022/01/01 01:39:00.000   4097216.5832   4429119.2745  -2065771.1791   6   8   0.0416   0.0448   0.0232   0.0258  -0.0221  -0.0201   0.00    0.0
2022/01/01 01:39:30.000   4097216.5863   4429119.2796  -2065771.1811   6   8   0.0415   0.0447   0.0233   0.0259  -0.0220  -0.0201   0.00    0.0
2022/01/01 01:40:00.000   4097216.5862   4429119.2752  -2065771.1841   6   8   0.0428   0.0458   0.0239   0.0277  -0.0226  -0.0210   0.00    0.0
2022/01/01 01:40:30.000   4097216.5772   4429119.2609  -2065771.1817   6   8   0.0414   0.0443   0.0233   0.0261  -0.0219  -0.0203   0.00    0.0
2022/01/01 01:41:00.000   4097216.5735   4429119.2502  -2065771.1793   6   8   0.0412   0.0442   0.0233   0.0262  -0.0219  -0.0203   0.00    0.0
2022/01/01 01:41:30.000   4097216.5756   4429119.2492  -2065771.1768   6   8   0.0410   0.0440   0.0232   0.0263  -0.0217  -0.0204   0.00    0.0
2022/01/01 01:42:00.000   4097216.5795   4429119.2531  -2065771.1730   6   8   0.0410   0.0438   0.0232   0.0263  -0.0217  -0.0203   0.00    0.0
2022/01/01 01:42:30.000   4097216.5873   4429119.2681  -2065771.1781   6   8   0.0409   0.0437   0.0233   0.0265  -0.0218  -0.0203   0.00    0.0
2022/01/01 01:43:00.000   4097216.5865   4429119.2718  -2065771.1747   6   8   0.0407   0.0435   0.0233   0.0265  -0.0218  -0.0204   0.00    0.0
2022/01/01 01:43:30.000   4097216.5718   4429119.2606  -2065771.1706   6   8   0.0406   0.0434   0.0232   0.0267  -0.0217  -0.0204   0.00    0.0
2022/01/01 01:44:00.000   4097216.5745   4429119.2570  -2065771.1753   6   8   0.0406   0.0432   0.0233   0.0267  -0.0217  -0.0204   0.00    0.0
2022/01/01 01:44:30.000   4097216.5797   4429119.2569  -2065771.1736   6   8   0.0405   0.0431   0.0233   0.0268  -0.0217  -0.0206   0.00    0.0
2022/01/01 01:45:00.000   4097216.5771   4429119.2545  -2065771.1744   6   8   0.0420   0.0444   0.0239   0.0288  -0.0224  -0.0214   0.00    0.0
2022/01/01 01:45:30.000   4097216.5683   4429119.2494  -2065771.1781   6   8   0.0403   0.0427   0.0233   0.0269  -0.0216  -0.0206   0.00    0.0
2022/01/01 01:46:00.000   4097216.5761   4429119.2545  -2065771.1735   6   8   0.0403   0.0427   0.0233   0.0270  -0.0215  -0.0207   0.00    0.0
2022/01/01 01:46:30.000   4097216.5793   4429119.2559  -2065771.1696   6   8   0.0401   0.0425   0.0234   0.0270  -0.0215  -0.0207   0.00    0.0
2022/01/01 01:47:00.000   4097216.5785   4429119.2627  -2065771.1702   6   8   0.0400   0.0424   0.0236   0.0272  -0.0215  -0.0208   0.00    0.0
2022/01/01 01:47:30.000   4097216.5760   4429119.2584  -2065771.1664   6   8   0.0400   0.0423   0.0235   0.0273  -0.0216  -0.0209   0.00    0.0
2022/01/01 01:48:00.000   4097216.5662   4429119.2509  -2065771.1661   6   8   0.0400   0.0423   0.0236   0.0275  -0.0215  -0.0209   0.00    0.0
2022/01/01 01:48:30.000   4097216.5621   4429119.2497  -2065771.1667   6   8   0.0399   0.0421   0.0236   0.0275  -0.0216  -0.0211   0.00    0.0
2022/01/01 01:49:00.000   4097216.5589   4429119.2451  -2065771.1638   6   8   0.0399   0.0420   0.0237   0.0276  -0.0216  -0.0211   0.00    0.0
2022/01/01 01:49:30.000   4097216.5548   4429119.2389  -2065771.1626   6   8   0.0398   0.0419   0.0236   0.0276  -0.0216  -0.0210   0.00    0.0
2022/01/01 01:50:00.000   4097216.5554   4429119.2426  -2065771.1651   6   8   0.0412   0.0432   0.0243   0.0294  -0.0222  -0.0218   0.00    0.0
2022/01/01 01:50:30.000   4097216.5551   4429119.2486  -2065771.1653   6   8   0.0397   0.0417   0.0238   0.0278  -0.0217  -0.0214   0.00    0.0
2022/01/01 01:51:00.000   4097216.5502   4429119.2496  -2065771.1598   6   8   0.0395   0.0416   0.0238   0.0278  -0.0216  -0.0213   0.00    0.0
2022/01/01 01:51:30.000   4097216.5606   4429119.2602  -2065771.1643   6   8   0.0395   0.0415   0.0239   0.0279  -0.0216  -0.0215   0.00    0.0
2022/01/01 01:52:00.000   4097216.5615   4429119.2565  -2065771.1683   6   8   0.0395   0.0415   0.0240   0.0280  -0.0218  -0.0216   0.00    0.0
2022/01/01 01:52:30.000   4097216.5588   4429119.2504  -2065771.1676   6   8   0.0395   0.0414   0.0241   0.0281  -0.0218  -0.0218   0.00    0.0
2022/01/01 01:53:00.000   4097216.5616   4429119.2550  -2065771.1634   6   8   0.0395   0.0413   0.0241   0.0281  -0.0219  -0.0219   0.00    0.0
2022/01/01 01:53:30.000   4097216.5658   4429119.2518  -2065771.1713   6   8   0.0394   0.0413   0.0243   0.0282  -0.0219  -0.0219   0.00    0.0
2022/01/01 01:54:00.000   4097216.5552   4429119.2501  -2065771.1682   6   8   0.0394   0.0412   0.0245   0.0282  -0.0219  -0.0220   0.00    0.0
2022/01/01 01:54:30.000   4097216.5657   4429119.2621  -2065771.1699   6   8   0.0394   0.0411   0.0243   0.0284  -0.0219  -0.0221   0.00    0.0
2022/01/01 01:55:00.000   4097216.5625   4429119.2620  -2065771.1695   6   8   0.0405   0.0421   0.0249   0.0297  -0.0224  -0.0227   0.00    0.0
2022/01/01 01:55:30.000   4097216.5667   4429119.2582  -2065771.1746   6   8   0.0393   0.0410   0.0246   0.0286  -0.0221  -0.0224   0.00    0.0
2022/01/01 01:56:00.000   4097216.5607   4429119.2559  -2065771.1642   6   8   0.0392   0.0411   0.0246   0.0287  -0.0222  -0.0225   0.00    0.0
2022/01/01 01:56:30.000   4097216.5620   4429119.2649  -2065771.1655   6   8   0.0393   0.0409   0.0247   0.0287  -0.0221  -0.0226   0.00    0.0
2022/01/01 01:57:00.000   4097216.5613   4429119.2618  -2065771.1706   6   8   0.0393   0.0410   0.0248   0.0289  -0.0222  -0.0227   0.00    0.0
2022/01/01 01:57:30.000   4097216.5540   4429119.2544  -2065771.1680   6   8   0.0393   0.0409   0.0249   0.0289  -0.0222  -0.0228   0.00    0.0
2022/01/01 01:58:00.000   4097216.5586   4429119.2600  -2065771.1729   6   8   0.0393   0.0408   0.0250   0.0290  -0.0224  -0.0229   0.00    0.0
2022/01/01 01:58:30.000   4097216.5529   4429119.2568  -2065771.1686   6   8   0.0392   0.0408   0.0250   0.0291  -0.0224  -0.0229   0.00    0.0
2022/01/01 01:59:00.000   4097216.5560   4429119.2566  -2065771.1716   6   8   0.0392   0.0407   0.0251   0.0292  -0.0225  -0.0232   0.00    0.0
2022/01/01 01:59:30.000   4097216.5596   4429119.2613  -2065771.1704   6   8   0.0392   0.0407   0.0253   0.0292  -0.0225  -0.0232   0.00    0.0
2022/01/01 02:00:00.000   4097216.5613   4429119.2611  -2065771.1729   6   8   0.0403   0.0420   0.0259   0.0306  -0.0232  -0.0239   0.00    0.0
2022/01/01 02:00:30.000   4097216.5569   4429119.2613  -2065771.1745   6   8   0.0393   0.0407   0.0254   0.0295  -0.0227  -0.0235   0.00    0.0
2022/01/01 02:01:00.000   4097216.5576   4429119.2646  -2065771.1706   6   8   0.0392   0.0407   0.0256   0.0296  -0.0228  -0.0236   0.00    0.0
2022/01/01 02:01:30.000   4097216.5527   4429119.2509  -2065771.1634   6   8   0.0392   0.0407   0.0258   0.0297  -0.0229  -0.0238   0.00    0.0
2022/01/01 02:02:00.000   4097216.5438   4429119.2440  -2065771.1613   6   8   0.0393   0.0407   0.0259   0.0298  -0.0231  -0.0239   0.00    0.0
2022/01/01 02:02:30.000   4097216.5507   4429119.2547  -2065771.1685   6   8   0.0393   0.0407   0.0260   0.0300  -0.0232  -0.0241   0.00    0.0
2022/01/01 02:03:00.000   4097216.5493   4429119.2570  -2065771.1654   6   8   0.0394   0.0407   0.0261   0.0301  -0.0232  -0.0242   0.00    0.0
2022/01/01 02:03:30.000   4097216.5514   4429119.2562  -2065771.1670   6   8   0.0394   0.0407   0.0262   0.0302  -0.0233  -0.0243   0.00    0.0
2022/01/01 02:04:00.000   4097216.5522   4429119.2604  -2065771.1640   6   8   0.0394   0.0407   0.0263   0.0303  -0.0234  -0.0245   0.00    0.0
2022/01/01 02:04:30.000   4097216.5548   4429119.2646  -2065771.1656   6   8   0.0394   0.0407   0.0264   0.0304  -0.0236  -0.0245   0.00    0.0
2022/01/01 02:05:00.000   4097216.5513   4429119.2588  -2065771.1685   6   8   0.0405   0.0418   0.0271   0.0316  -0.0241  -0.0252   0.00    0.0
2022/01/01 02:05:30.000   4097216.5482   4429119.2529  -2065771.1604   6   8   0.0396   0.0408   0.0268   0.0307  -0.0238  -0.0251   0.00    0.0
2022/01/01 02:06:00.000   4097216.5470   4429119.2559  -2065771.1596   6   8   0.0396   0.0407   0.0268   0.0308  -0.0239  -0.0251   0.00    0.0
2022/01/01 02:06:30.000   4097216.5454   4429119.2536  -2065771.1586   6   8   0.0397   0.0408   0.0271   0.0309  -0.0241  -0.0254   0.00    0.0
2022/01/01 02:07:00.000   4097216.5495   4429119.2523  -2065771.1585   6   8   0.0397   0.0408   0.0272   0.0310  -0.0241  -0.0255   0.00    0.0
2022/01/01 02:07:30.000   4097216.5455   4429119.2532  -2065771.1584   6   8   0.0397   0.0409   0.0273   0.0311  -0.0243  -0.0255   0.00    0.0
2022/01/01 02:08:00.000   4097216.5546   4429119.2673  -2065771.1592   6   8   0.0398   0.0409   0.0275   0.0313  -0.0244  -0.0257   0.00    0.0
2022/01/01 02:08:30.000   4097216.5514   4429119.2641  -2065771.1600   6   8   0.0398   0.0409   0.0275   0.0314  -0.0245  -0.0258   0.00    0.0
2022/01/01 02:09:00.000   4097216.5443   4429119.2550  -2065771.1604   6   8   0.0398   0.0410   0.0276   0.0315  -0.0246  -0.0259   0.00    0.0
2022/01/01 02:09:30.000   4097216.5539   4429119.2635  -2065771.1673   6   7   0.0429   0.0426   0.0327   0.0344  -0.0285  -0.0309   0.00    0.0
2022/01/01 02:10:00.000   4097216.5499   4429119.2618  -2065771.1612   6   7   0.0441   0.0440   0.0336   0.0357  -0.0293  -0.0318   0.00    0.0
2022/01/01 02:10:30.000   4097216.5471   4429119.2628  -2065771.1577   6   7   0.0430   0.0428   0.0329   0.0346  -0.0287  -0.0311   0.00    0.0
2022/01/01 02:11:00.000   4097216.5509   4429119.2668  -2065771.1681   6   7   0.0430   0.0429   0.0330   0.0348  -0.0288  -0.0312   0.00    0.0
2022/01/01 02:11:30.000   4097216.5511   4429119.2679  -2065771.1656   6   7   0.0430   0.0430   0.0331   0.0349  -0.0289  -0.0313   0.00    0.0
2022/01/01 02:12:00.000   4097216.5478   4429119.2635  -2065771.1592   6   7   0.0431   0.0430   0.0332   0.0350  -0.0290  -0.0313   0.00    0.0
2022/01/01 02:12:30.000   4097216.5550   4429119.2707  -2065771.1651   6   7   0.0431   0.0432   0.0332   0.0351  -0.0291  -0.0314   0.00    0.0
2022/01/01 02:13:00.000   4097216.5376   4429119.2528  -2065771.1537   6   7   0.0430   0.0432   0.0332   0.0352  -0.0292  -0.0315   0.00    0.0
2022/01/01 02:13:30.000   4097216.5455   4429119.2595  -2065771.1564   6   7   0.0431   0.0433   0.0333   0.0353  -0.0293  -0.0316   0.00    0.0
2022/01/01 02:14:00.000   4097216.5517   4429119.2654  -2065771.1689   6   7   0.0430   0.0434   0.0334   0.0354  -0.0293  -0.0316   0.00    0.0
2022/01/01 02:14:30.000   4097216.5200   4429119.2446  -2065771.1599   6   7   0.0431   0.0435   0.0334   0.0355  -0.0294  -0.0317   0.00    0.0
2022/01/01 02:15:00.000   4097216.5344   4429119.2409  -2065771.1550   6   7   0.0443   0.0449   0.0345   0.0369  -0.0305  -0.0327   0.00    0.0
2022/01/01 02:15:30.000   4097216.5489   4429119.2571  -2065771.1608   6   7   0.0430   0.0436   0.0335   0.0356  -0.0296  -0.0317   0.00    0.0
2022/01/01 02:16:00.000   4097216.5436   4429119.2560  -2065771.1600   6   7   0.0431   0.0437   0.0335   0.0358  -0.0297  -0.0318   0.00    0.0
2022/01/01 02:16:30.000   4097216.5491   4429119.2626  -2065771.1615   6   7   0.0431   0.0439   0.0336   0.0359  -0.0298  -0.0319   0.00    0.0
2022/01/01 02:17:00.000   4097216.5580   4429119.2792  -2065771.1660   6   7   0.0431   0.0440   0.0337   0.0361  -0.0299  -0.0319   0.00    0.0
2022/01/01 02:17:30.000   4097216.5550   4429119.2746  -2065771.1624   6   7   0.0430   0.0440   0.0336   0.0361  -0.0299  -0.0319   0.00    0.0
2022/01/01 02:18:00.000   4097216.5567   4429119.2818  -2065771.1676   6   7   0.0430   0.0440   0.0337   0.0362  -0.0300  -0.0320   0.00    0.0
2022/01/01 02:18:30.000   4097216.5537   4429119.2872  -2065771.1668   6   7   0.0430   0.0442   0.0337   0.0363  -0.0301  -0.0319   0.00    0.0
2022/01/01 02:19:00.000   4097216.5546   4429119.2835  -2065771.1710   6   7   0.0430   0.0443   0.0339   0.0364  -0.0303  -0.0320   0.00    0.0
2022/01/01 02:19:30.000   4097216.5609   4429119.2956  -2065771.1751   6   7   0.0431   0.0444   0.0339   0.0365  -0.0302  -0.0321   0.00    0.0
2022/01/01 02:20:00.000   4097216.5543   4429119.2834  -2065771.1732   6   7   0.0444   0.0459   0.0351   0.0379  -0.0314  -0.0332   0.00    0.0
2022/01/01 02:20:30.000   4097216.5518   4429119.2806  -2065771.1720   6   7   0.0430   0.0446   0.0340   0.0368  -0.0304  -0.0322   0.00    0.0
2022/01/01 02:21:00.000   4097216.5543   4429119.2833  -2065771.1684   6   7   0.0430   0.0446   0.0341   0.0368  -0.0305  -0.0322   0.00    0.0
2022/01/01 02:21:30.000   4097216.5503   4429119.2738  -2065771.1713   6   7   0.0432   0.0448   0.0341   0.0369  -0.0306  -0.0323   0.00    0.0
2022/01/01 02:22:00.000   4097216.5520   4429119.2693  -2065771.1799   6   7   0.0431   0.0449   0.0341   0.0371  -0.0307  -0.0323   0.00    0.0
2022/01/01 02:22:30.000   4097216.5439   4429119.2707  -2065771.1774   6   7   0.0432   0.0450   0.0341   0.0372  -0.0307  -0.0324   0.00    0.0
2022/01/01 02:23:00.000   4097216.5438   4429119.2674  -2065771.1641   6   7   0.0431   0.0451   0.0342   0.0372  -0.0309  -0.0324   0.00    0.0
2022/01/01 02:23:30.000   4097216.5398   4429119.2642  -2065771.1664   6   7   0.0432   0.0452   0.0342   0.0374  -0.0310  -0.0324   0.00    0.0
2022/01/01 02:24:00.000   4097216.5427   4429119.2743  -2065771.1730   6   7   0.0432   0.0453   0.0342   0.0375  -0.0310  -0.0325   0.00    0.0
2022/01/01 02:24:30.000   4097216.5443   4429119.2734  -2065771.1702   6   7   0.0431   0.0454   0.0343   0.0376  -0.0310  -0.0325   0.00    0.0
2022/01/01 02:25:00.000   4097216.5382   4429119.2645  -2065771.1635   6   7   0.0443   0.0470   0.0353   0.0389  -0.0320  -0.0334   0.00    0.0
2022/01/01 02:25:30.000   4097216.5433   4429119.2647  -2065771.1606   6   7   0.0430   0.0456   0.0342   0.0377  -0.0311  -0.0324   0.00    0.0
2022/01/01 02:26:00.000   4097216.5442   4429119.2694  -2065771.1612   6   7   0.0430   0.0457   0.0343   0.0378  -0.0311  -0.0324   0.00    0.0
2022/01/01 02:26:30.000   4097216.5417   4429119.2674  -2065771.1618   6   7   0.0430   0.0458   0.0343   0.0378  -0.0312  -0.0324   0.00    0.0
2022/01/01 02:27:00.000   4097216.5389   4429119.2629  -2065771.1682   6   7   0.0430   0.0459   0.0343   0.0379  -0.0313  -0.0325   0.00    0.0
2022/01/01 02:27:30.000   4097216.5339   4429119.2556  -2065771.1592   6   7   0.0430   0.0460   0.0343   0.0380  -0.0313  -0.0324   0.00    0.0
2022/01/01 02:28:00.000   4097216.5334   4429119.2586  -2065771.1585   6   7   0.0430   0.0461   0.0343   0.0381  -0.0314  -0.0324   0.00    0.0
2022/01/01 02:28:30.000   4097216.5321   4429119.2513  -2065771.1528   6   7   0.0430   0.0462   0.0343   0.0383  -0.0314  -0.0324   0.00    0.0
2022/01/01 02:29:00.000   4097216.5421   4429119.2628  -2065771.1680   6   7   0.0431   0.0464   0.0343   0.0384  -0.0315  -0.0325   0.00    0.0
2022/01/01 02:29:30.000   4097216.5359   4429119.2558  -2065771.1657   6   7   0.0431   0.0464   0.0342   0.0384  -0.0315  -0.0324   0.00    0.0
2022/01/01 02:30:00.000   4097216.5348   4429119.2560  -2065771.1627   6   7   0.0449   0.0486   0.0360   0.0405  -0.0333  -0.0339   0.00    0.0
2022/01/01 02:30:30.000   4097216.5364   4429119.2581  -2065771.1636   6   7   0.0431   0.0467   0.0341   0.0386  -0.0316  -0.0325   0.00    0.0
2022/01/01 02:31:00.000   4097216.5406   4429119.2650  -2065771.1592   6   7   0.0429   0.0467   0.0340   0.0386  -0.0315  -0.0323   0.00    0.0
2022/01/01 02:31:30.000   4097216.5421   4429119.2634  -2065771.1561   6   7   0.0430   0.0468   0.0341   0.0388  -0.0316  -0.0323   0.00    0.0
2022/01/01 02:32:00.000   4097216.5402   4429119.2631  -2065771.1570   6   7   0.0429   0.0469   0.0338   0.0388  -0.0315  -0.0322   0.00    0.0
2022/01/01 02:32:30.000   4097216.5542   4429119.2873  -2065771.1758   6   7   0.0429   0.0470   0.0338   0.0388  -0.0315  -0.0322   0.00    0.0
2022/01/01 02:33:00.000   4097216.5564   4429119.2987  -2065771.1782   6   7   0.0428   0.0470   0.0338   0.0389  -0.0316  -0.0321   0.00    0.0
2022/01/01 02:33:30.000   4097216.5541   4429119.2944  -2065771.1778   6   7   0.0429   0.0472   0.0338   0.0390  -0.0317  -0.0321   0.00    0.0
2022/01/01 02:34:00.000   4097216.5482   4429119.2830  -2065771.1735   6   7   0.0428   0.0472   0.0338   0.0390  -0.0317  -0.0321   0.00    0.0
2022/01/01 02:34:30.000   4097216.5491   4429119.2755  -2065771.1723   6   7   0.0428   0.0474   0.0337   0.0391  -0.0317  -0.0321   0.00    0.0
2022/01/01 02:35:00.000   4097216.5348   4429119.2555  -2065771.1620   6   7   0.0446   0.0494   0.0353   0.0410  -0.0332  -0.0335   0.00    0.0
2022/01/01 02:35:30.000   4097216.5329   4429119.2527  -2065771.1597   6   7   0.0427   0.0475   0.0335   0.0392  -0.0315  -0.0318   0.00    0.0
2022/01/01 02:36:00.000   4097216.5323   4429119.2471  -2065771.1611   6   7   0.0428   0.0476   0.0336   0.0393  -0.0316  -0.0319   0.00    0.0
2022/01/01 02:36:30.000   4097216.5360   4429119.2600  -2065771.1656   6   7   0.0428   0.0478   0.0336   0.0395  -0.0316  -0.0319   0.00    0.0
2022/01/01 02:37:00.000   4097216.5416   4429119.2706  -2065771.1664   6   7   0.0428   0.0479   0.0336   0.0396  -0.0317  -0.0318   0.00    0.0
2022/01/01 02:37:30.000   4097216.5542   4429119.2882  -2065771.1746   6   7   0.0429   0.0481   0.0336   0.0397  -0.0318  -0.0318   0.00    0.0
2022/01/01 02:38:00.000   4097216.5521   4429119.2909  -2065771.1807   6   7   0.0427   0.0482   0.0335   0.0398  -0.0317  -0.0318   0.00    0.0
2022/01/01 02:38:30.000   4097216.5414   4429119.2697  -2065771.1706   6   7   0.0429   0.0483   0.0334   0.0398  -0.0318  -0.0318   0.00    0.0
2022/01/01 02:39:00.000   4097216.5435   4429119.2735  -2065771.1646   6   7   0.0428   0.0484   0.0334   0.0398  -0.0317  -0.0316   0.00    0.0
2022/01/01 02:39:30.000   4097216.5421   4429119.2715  -2065771.1641   6   7   0.0427   0.0485   0.0333   0.0399  -0.0318  -0.0316   0.00    0.0
2022/01/01 02:40:00.000   4097216.5322   4429119.2611  -2065771.1616   6   7   0.0444   0.0506   0.0348   0.0418  -0.0333  -0.0330   0.00    0.0
2022/01/01 02:40:30.000   4097216.5331   4429119.2542  -2065771.1555   6   7   0.0427   0.0487   0.0332   0.0401  -0.0317  -0.0314   0.00    0.0
2022/01/01 02:41:00.000   4097216.5397   4429119.2579  -2065771.1570   6   8   0.0426   0.0488   0.0331   0.0402  -0.0317  -0.0314   0.00    0.0
2022/01/01 02:41:30.000   4097216.5408   4429119.2777  -2065771.1633   6   8   0.0412   0.0470   0.0304   0.0384  -0.0288  -0.0289   0.00    0.0
2022/01/01 02:42:00.000   4097216.5428   4429119.2762  -2065771.1635   6   8   0.0407   0.0465   0.0293   0.0378  -0.0277  -0.0280   0.00    0.0
2022/01/01 02:42:30.000   4097216.5415   4429119.2641  -2065771.1584   6   8   0.0404   0.0463   0.0287   0.0374  -0.0271  -0.0274   0.00    0.0
2022/01/01 02:43:00.000   4097216.5334   4429119.2431  -2065771.1553   6   8   0.0401   0.0461   0.0282   0.0372  -0.0266  -0.0270   0.00    0.0
2022/01/01 02:43:30.000   4097216.5369   4429119.2567  -2065771.1557   6   8   0.0401   0.0459   0.0280   0.0371  -0.0263  -0.0268   0.00    0.0
2022/01/01 02:44:00.000   4097216.5475   4429119.2779  -2065771.1651   6   8   0.0401   0.0460   0.0277   0.0371  -0.0261  -0.0266   0.00    0.0
2022/01/01 02:44:30.000   4097216.5510   4429119.2825  -2065771.1710   6   8   0.0399   0.0460   0.0273   0.0371  -0.0258  -0.0263   0.00    0.0
2022/01/01 02:45:00.000   4097216.5524   4429119.2793  -2065771.1705   6   8   0.0411   0.0476   0.0279   0.0383  -0.0265  -0.0268   0.00    0.0
2022/01/01 02:45:30.000   4097216.5497   4429119.2742  -2065771.1673   6   8   0.0396   0.0458   0.0268   0.0368  -0.0253  -0.0257   0.00    0.0
2022/01/01 02:46:00.000   4097216.5478   4429119.2697  -2065771.1636   6   8   0.0394   0.0458   0.0267   0.0368  -0.0252  -0.0255   0.00    0.0
2022/01/01 02:46:30.000   4097216.5477   4429119.2724  -2065771.1654   6   8   0.0393   0.0459   0.0265   0.0368  -0.0250  -0.0253   0.00    0.0
2022/01/01 02:47:00.000   4097216.5506   4429119.2753  -2065771.1703   6   8   0.0395   0.0460   0.0263   0.0369  -0.0249  -0.0251   0.00    0.0
2022/01/01 02:47:30.000   4097216.5522   4429119.2817  -2065771.1736   6   8   0.0394   0.0460   0.0261   0.0370  -0.0247  -0.0250   0.00    0.0
2022/01/01 02:48:00.000   4097216.5484   4429119.2713  -2065771.1690   6   8   0.0394   0.0461   0.0260   0.0370  -0.0246  -0.0250   0.00    0.0
2022/01/01 02:48:30.000   4097216.5477   4429119.2654  -2065771.1673   6   8   0.0393   0.0462   0.0258   0.0370  -0.0245  -0.0247   0.00    0.0
2022/01/01 02:49:00.000   4097216.5485   4429119.2648  -2065771.1659   6   8   0.0395   0.0463   0.0257   0.0371  -0.0244  -0.0247   0.00    0.0
2022/01/01 02:49:30.000   4097216.5445   4429119.2608  -2065771.1613   6   8   0.0393   0.0464   0.0255   0.0372  -0.0242  -0.0245   0.00    0.0
2022/01/01 02:50:00.000   4097216.5475   4429119.2698  -2065771.1613   6   8   0.0403   0.0478   0.0261   0.0383  -0.0248  -0.0251   0.00    0.0
2022/01/01 02:50:30.000   4097216.5487   4429119.2759  -2065771.1634   6   8   0.0395   0.0466   0.0252   0.0373  -0.0240  -0.0244   0.00    0.0
2022/01/01 02:51:00.000   4097216.5409   4429119.2695  -2065771.1607   6   8   0.0394   0.0467   0.0251   0.0374  -0.0240  -0.0243   0.00    0.0
2022/01/01 02:51:30.000   4097216.5484   4429119.2675  -2065771.1611   6   8   0.0394   0.0469   0.0249   0.0376  -0.0238  -0.0241   0.00    0.0
2022/01/01 02:52:00.000   4097216.5485   4429119.2651  -2065771.1592   6   8   0.0396   0.0470   0.0250   0.0376  -0.0239  -0.0241   0.00    0.0
2022/01/01 02:52:30.000   4097216.5513   4429119.2795  -2065771.1685   6   8   0.0395   0.0471   0.0248   0.0377  -0.0238  -0.0239   0.00    0.0
2022/01/01 02:53:00.000   4097216.5448   4429119.2716  -2065771.1627   6   8   0.0396   0.0472   0.0247   0.0379  -0.0238  -0.0239   0.00    0.0
2022/01/01 02:53:30.000   4097216.5449   4429119.2686  -2065771.1625   6   8   0.0396   0.0474   0.0246   0.0380  -0.0236  -0.0238   0.00    0.0
2022/01/01 02:54:00.000   4097216.5498   4429119.2759  -2065771.1648   6   8   0.0396   0.0476   0.0244   0.0381  -0.0235  -0.0236   0.00    0.0
2022/01/01 02:54:30.000   4097216.5522   4429119.2792  -2065771.1689   6   8   0.0396   0.0477   0.0242   0.0383  -0.0234  -0.0235   0.00    0.0
2022/01/01 02:55:00.000   4097216.5517   4429119.2717  -2065771.1702   6   8   0.0406   0.0491   0.0248   0.0393  -0.0239  -0.0240   0.00    0.0
2022/01/01 02:55:30.000   4097216.5505   4429119.2729  -2065771.1702   6   8   0.0399   0.0481   0.0241   0.0385  -0.0234  -0.0235   0.00    0.0
2022/01/01 02:56:00.000   4097216.5551   4429119.2848  -2065771.1716   6   8   0.0399   0.0483   0.0240   0.0387  -0.0233  -0.0234   0.00    0.0
2022/01/01 02:56:30.000   4097216.5525   4429119.2811  -2065771.1717   6   8   0.0400   0.0485   0.0238   0.0389  -0.0233  -0.0232   0.00    0.0
2022/01/01 02:57:00.000   4097216.5552   4429119.2753  -2065771.1743   6   8   0.0400   0.0487   0.0238   0.0391  -0.0233  -0.0233   0.00    0.0
2022/01/01 02:57:30.000   4097216.5544   4429119.2741  -2065771.1700   6   8   0.0401   0.0489   0.0237   0.0392  -0.0232  -0.0232   0.00    0.0
2022/01/01 02:58:00.000   4097216.5690   4429119.2951  -2065771.1758   6   8   0.0403   0.0491   0.0235   0.0394  -0.0232  -0.0231   0.00    0.0
2022/01/01 02:58:30.000   4097216.5662   4429119.2944  -2065771.1788   6   8   0.0402   0.0493   0.0234   0.0396  -0.0231  -0.0230   0.00    0.0
2022/01/01 02:59:00.000   4097216.5610   4429119.2893  -2065771.1765   6   8   0.0405   0.0495   0.0233   0.0397  -0.0231  -0.0230   0.00    0.0
2022/01/01 02:59:30.000   4097216.5583   4429119.2848  -2065771.1745   6   8   0.0406   0.0498   0.0231   0.0399  -0.0230  -0.0230   0.00    0.0
2022/01/01 03:00:00.000   4097216.5584   4429119.2824  -2065771.1721   6   8   0.0418   0.0516   0.0239   0.0414  -0.0238  -0.0236   0.00    0.0
2022/01/01 03:00:30.000   4097216.5547   4429119.2729  -2065771.1709   6   8   0.0408   0.0501   0.0231   0.0403  -0.0231  -0.0228   0.00    0.0
2022/01/01 03:01:00.000   4097216.5470   4429119.2603  -2065771.1673   6   8   0.0408   0.0504   0.0230   0.0405  -0.0230  -0.0228   0.00    0.0
2022/01/01 03:01:30.000   4097216.5432   4429119.2484  -2065771.1656   6   8   0.0410   0.0507   0.0230   0.0408  -0.0231  -0.0227   0.00    0.0
2022/01/01 03:02:00.000   4097216.5490   4429119.2596  -2065771.1652   6   8   0.0412   0.0510   0.0228   0.0410  -0.0230  -0.0227   0.00    0.0
2022/01/01 03:02:30.000   4097216.5502   4429119.2646  -2065771.1625   6   8   0.0414   0.0513   0.0227   0.0413  -0.0230  -0.0227   0.00    0.0
2022/01/01 03:03:00.000   4097216.5511   4429119.2663  -2065771.1659   6   8   0.0416   0.0515   0.0226   0.0415  -0.0231  -0.0227   0.00    0.0
2022/01/01 03:03:30.000   4097216.5500   4429119.2679  -2065771.1656   6   8   0.0417   0.0519   0.0225   0.0418  -0.0231  -0.0227   0.00    0.0
2022/01/01 03:04:00.000   4097216.5567   4429119.2836  -2065771.1669   6   8   0.0418   0.0522   0.0226   0.0421  -0.0231  -0.0227   0.00    0.0
2022/01/01 03:04:30.000   4097216.5568   4429119.2834  -2065771.1687   6   8   0.0420   0.0525   0.0225   0.0423  -0.0230  -0.0227   0.00    0.0
2022/01/01 03:05:00.000   4097216.5621   4429119.2882  -2065771.1658   6   8   0.0434   0.0544   0.0230   0.0438  -0.0238  -0.0234   0.00    0.0
2022/01/01 03:05:30.000   4097216.5544   4429119.2766  -2065771.1689   6   8   0.0423   0.0530   0.0223   0.0428  -0.0230  -0.0226   0.00    0.0
2022/01/01 03:06:00.000   4097216.5525   4429119.2740  -2065771.1661   6   8   0.0426   0.0533   0.0222   0.0431  -0.0230  -0.0226   0.00    0.0
2022/01/01 03:06:30.000   4097216.5446   4429119.2503  -2065771.1581   6   9   0.0428   0.0536   0.0222   0.0433  -0.0231  -0.0225   0.00    0.0
2022/01/01 03:07:00.000   4097216.5483   4429119.2536  -2065771.1622   6   9   0.0414   0.0508   0.0220   0.0412  -0.0221  -0.0220   0.00    0.0
2022/01/01 03:07:30.000   4097216.5536   4429119.2607  -2065771.1612   6   9   0.0410   0.0499   0.0218   0.0405  -0.0218  -0.0217   0.00    0.0
2022/01/01 03:08:00.000   4097216.5555   4429119.2632  -2065771.1643   6   9   0.0409   0.0497   0.0217   0.0404  -0.0217  -0.0216   0.00    0.0
2022/01/01 03:08:30.000   4097216.5588   4429119.2697  -2065771.1691   6   9   0.0409   0.0495   0.0216   0.0404  -0.0215  -0.0215   0.00    0.0
2022/01/01 03:09:00.000   4097216.5487   4429119.2626  -2065771.1710   6   9   0.0410   0.0495   0.0216   0.0404  -0.0215  -0.0215   0.00    0.0
2022/01/01 03:09:30.000   4097216.5504   4429119.2683  -2065771.1748   6   9   0.0410   0.0496   0.0215   0.0405  -0.0214  -0.0214   0.00    0.0
2022/01/01 03:10:00.000   4097216.5470   4429119.2711  -2065771.1774   6   9   0.0418   0.0505   0.0220   0.0413  -0.0218  -0.0217   0.00    0.0
2022/01/01 03:10:30.000   4097216.5353   4429119.2604  -2065771.1801   6   8   0.0449   0.0525   0.0214   0.0443  -0.0218  -0.0218   0.00    0.0
2022/01/01 03:11:00.000   4097216.5425   4429119.2597  -2065771.1791   6   8   0.0451   0.0527   0.0213   0.0445  -0.0217  -0.0219   0.00    0.0
2022/01/01 03:11:30.000   4097216.5397   4429119.2544  -2065771.1811   6   8   0.0450   0.0528   0.0212   0.0446  -0.0216  -0.0216   0.00    0.0
2022/01/01 03:12:00.000   4097216.5792   4429119.3099  -2065771.1864   6   7   0.0523   0.0649   0.0216   0.0546  -0.0249  -0.0240   0.00    0.0
2022/01/01 03:12:30.000   4097216.5766   4429119.2948  -2065771.1805   6   7   0.0524   0.0652   0.0215   0.0548  -0.0249  -0.0240   0.00    0.0
2022/01/01 03:13:00.000   4097216.5666   4429119.2762  -2065771.1749   6   7   0.0528   0.0660   0.0215   0.0554  -0.0251  -0.0242   0.00    0.0
2022/01/01 03:13:30.000   4097216.5606   4429119.2643  -2065771.1732   6   7   0.0531   0.0665   0.0215   0.0559  -0.0251  -0.0242   0.00    0.0
2022/01/01 03:14:00.000   4097216.5455   4429119.2383  -2065771.1653   6   7   0.0536   0.0672   0.0215   0.0565  -0.0252  -0.0242   0.00    0.0
2022/01/01 03:14:30.000   4097216.5510   4429119.2444  -2065771.1674   6   7   0.0538   0.0676   0.0213   0.0568  -0.0253  -0.0243   0.00    0.0
2022/01/01 03:15:00.000   4097216.5341   4429119.2313  -2065771.1653   6   7   0.0563   0.0706   0.0220   0.0595  -0.0265  -0.0253   0.00    0.0
2022/01/01 03:15:30.000   4097216.5358   4429119.2480  -2065771.1633   6   7   0.0542   0.0686   0.0213   0.0575  -0.0254  -0.0243   0.00    0.0
2022/01/01 03:16:00.000   4097216.5556   4429119.2744  -2065771.1691   6   7   0.0545   0.0691   0.0212   0.0579  -0.0254  -0.0243   0.00    0.0
2022/01/01 03:16:30.000   4097216.5636   4429119.2880  -2065771.1735   6   7   0.0548   0.0695   0.0211   0.0583  -0.0254  -0.0242   0.00    0.0
2022/01/01 03:17:00.000   4097216.5666   4429119.3004  -2065771.1761   6   7   0.0552   0.0702   0.0211   0.0589  -0.0257  -0.0244   0.00    0.0
2022/01/01 03:17:30.000   4097216.5863   4429119.3170  -2065771.1801   6   7   0.0556   0.0707   0.0211   0.0593  -0.0257  -0.0244   0.00    0.0
2022/01/01 03:18:00.000   4097216.5816   4429119.3066  -2065771.1786   6   7   0.0558   0.0714   0.0210   0.0598  -0.0259  -0.0245   0.00    0.0
2022/01/01 03:18:30.000   4097216.5763   4429119.3002  -2065771.1769   6   7   0.0563   0.0720   0.0210   0.0604  -0.0259  -0.0245   0.00    0.0
2022/01/01 03:19:00.000   4097216.5814   4429119.3071  -2065771.1774   6   7   0.0567   0.0726   0.0210   0.0609  -0.0260  -0.0247   0.00    0.0
2022/01/01 03:19:30.000   4097216.5775   4429119.2977  -2065771.1743   6   7   0.0572   0.0733   0.0209   0.0615  -0.0261  -0.0247   0.00    0.0
2022/01/01 03:20:00.000   4097216.5830   4429119.3092  -2065771.1774   6   7   0.0599   0.0766   0.0217   0.0645  -0.0276  -0.0260   0.00    0.0
2022/01/01 03:20:30.000   4097216.5777   4429119.3074  -2065771.1748   6   7   0.0580   0.0748   0.0210   0.0627  -0.0265  -0.0250   0.00    0.0
2022/01/01 03:21:00.000   4097216.5774   4429119.3037  -2065771.1743   6   7   0.0585   0.0755   0.0210   0.0634  -0.0266  -0.0252   0.00    0.0
2022/01/01 03:21:30.000   4097216.5811   4429119.3080  -2065771.1736   6   8   0.0588   0.0760   0.0208   0.0638  -0.0267  -0.0252   0.00    0.0
2022/01/01 03:22:00.000   4097216.5717   4429119.2948  -2065771.1707   6   8   0.0537   0.0678   0.0205   0.0570  -0.0242  -0.0234   0.00    0.0
2022/01/01 03:22:30.000   4097216.5720   4429119.2965  -2065771.1719   6   8   0.0520   0.0651   0.0205   0.0547  -0.0234  -0.0228   0.00    0.0
2022/01/01 03:23:00.000   4097216.5746   4429119.2943  -2065771.1710   6   8   0.0513   0.0638   0.0203   0.0536  -0.0230  -0.0224   0.00    0.0
2022/01/01 03:23:30.000   4097216.5872   4429119.3125  -2065771.1709   6   8   0.0509   0.0630   0.0201   0.0530  -0.0228  -0.0223   0.00    0.0
