% program   : RTKPOST ver.2.4.3 b34
% inp file  : C:\Users\LZ\Desktop\read_pos_test\abpo0010.22o
% inp file  : C:\Users\LZ\Desktop\read_pos_test\brdm0010.22p
% inp file  : C:\Users\LZ\Desktop\read_pos_test\igs21906.sp3
% inp file  : C:\Users\LZ\Desktop\read_pos_test\igs21906.clk
% obs start : 2022/01/01 00:00:00.0 GPST (week2190 518400.0s)
% obs end   : 2022/01/01 23:59:30.0 GPST (week2190 604770.0s)
% pos mode  : PPP Kinematic
% solution  : Forward
% elev mask : 10.0 deg
% dynamics  : off
% tidecorr  : on
% tropo opt : Estimate ZTD
% ephemeris : Precise
% navi sys  : GPS
% antenna1  :                       ( 0.0000  0.0000  0.0000)
%
% (lat/lon/height=WGS84/ellipsoidal,Q=1:fix,2:float,3:sbas,4:dgps,5:single,6:ppp,ns=# of satellites)
%  GPST                  latitude(deg) longitude(deg)  height(m)   Q  ns   sdn(m)   sde(m)   sdu(m)  sdne(m)  sdeu(m)  sdun(m) age(s)  ratio
2022/01/01 00:00:00.000  -19.018298015   47.229218287  1553.8186   6   8   4.5545   4.2799   9.9324   1.8884   1.6798  -2.3216   0.00    0.0
2022/01/01 00:00:30.000  -19.018297722   47.229216324  1553.6874   6   8   2.8086   2.8901   6.2620   0.8816  -0.6077  -1.7306   0.00    0.0
2022/01/01 00:01:00.000  -19.018299394   47.229214916  1553.7551   6   8   1.9524   2.2493   4.4668   0.1562  -1.0552  -1.3317   0.00    0.0
2022/01/01 00:01:30.000  -19.018299792   47.229212171  1553.6645   6   8   1.4474   1.8642   3.4272  -0.4418  -1.0986  -1.0420   0.00    0.0
2022/01/01 00:02:00.000  -19.018301609   47.229211265  1553.4512   6   8   1.1256   1.5994   2.7854  -0.4921  -1.0584  -0.8429   0.00    0.0
2022/01/01 00:02:30.000  -19.018303021   47.229211188  1553.4936   6   8   0.9092   1.4017   2.3698  -0.4809  -0.9982  -0.7084   0.00    0.0
2022/01/01 00:03:00.000  -19.018303197   47.229211196  1553.4201   6   8   0.7559   1.2454   2.0848  -0.4503  -0.9371  -0.6174   0.00    0.0
2022/01/01 00:03:30.000  -19.018303473   47.229211950  1553.3376   6   8   0.6433   1.1179   1.8794  -0.4137  -0.8808  -0.5540   0.00    0.0
2022/01/01 00:04:00.000  -19.018304100   47.229213099  1553.2279   6   8   0.5576   1.0117   1.7227  -0.3765  -0.8305  -0.5075   0.00    0.0
2022/01/01 00:04:30.000  -19.018304478   47.229213521  1553.1644   6   8   0.4902   0.9213   1.5972  -0.3408  -0.7854  -0.4724   0.00    0.0
2022/01/01 00:05:00.000  -19.018304246   47.229213491  1553.1874   6   8   0.4392   0.8470   1.4982  -0.3082  -0.7460  -0.4425   0.00    0.0
2022/01/01 00:05:30.000  -19.018304163   47.229213291  1553.3091   6   8   0.3935   0.7790   1.4064  -0.2770  -0.7095  -0.4196   0.00    0.0
2022/01/01 00:06:00.000  -19.018303833   47.229212419  1553.3682   6   8   0.3562   0.7198   1.3268  -0.2483  -0.6762  -0.3996   0.00    0.0
2022/01/01 00:06:30.000  -19.018303499   47.229211178  1553.4552   6   8   0.3249   0.6683   1.2564  -0.2222  -0.6459  -0.3818   0.00    0.0
2022/01/01 00:07:00.000  -19.018303069   47.229210253  1553.4365   6   8   0.2983   0.6228   1.1931  -0.1983  -0.6179  -0.3658   0.00    0.0
2022/01/01 00:07:30.000  -19.018303094   47.229209813  1553.4664   6   8   0.2755   0.5827   1.1359  -0.1765  -0.5923  -0.3513   0.00    0.0
2022/01/01 00:08:00.000  -19.018303180   47.229210761  1553.3364   6   8   0.2558   0.5471   1.0839  -0.1566  -0.5687  -0.3380   0.00    0.0
2022/01/01 00:08:30.000  -19.018303215   47.229211395  1553.2260   6   8   0.2386   0.5152   1.0363  -0.1380  -0.5468  -0.3258   0.00    0.0
2022/01/01 00:09:00.000  -19.018303288   47.229212003  1553.1797   6   8   0.2235   0.4867   0.9926  -0.1207  -0.5265  -0.3146   0.00    0.0
2022/01/01 00:09:30.000  -19.018303424   47.229212412  1553.2009   6   8   0.2102   0.4609   0.9523  -0.1042  -0.5076  -0.3044   0.00    0.0
2022/01/01 00:10:00.000  -19.018303404   47.229212714  1553.1651   6   8   0.1991   0.4389   0.9180  -0.0895  -0.4910  -0.2946   0.00    0.0
2022/01/01 00:10:30.000  -19.018303347   47.229212835  1553.1337   6   8   0.1882   0.4178   0.8827  -0.0738  -0.4746  -0.2858   0.00    0.0
2022/01/01 00:11:00.000  -19.018303339   47.229213131  1553.1044   6   8   0.1786   0.3984   0.8502  -0.0573  -0.4592  -0.2777   0.00    0.0
2022/01/01 00:11:30.000  -19.018303407   47.229213411  1553.0837   6   8   0.1700   0.3807   0.8201  -0.0384  -0.4448  -0.2701   0.00    0.0
2022/01/01 00:12:00.000  -19.018303544   47.229213596  1553.1103   6   8   0.1623   0.3646   0.7921   0.0053  -0.4314  -0.2630   0.00    0.0
2022/01/01 00:12:30.000  -19.018303621   47.229213569  1553.1404   6   8   0.1553   0.3498   0.7660   0.0357  -0.4189  -0.2563   0.00    0.0
2022/01/01 00:13:00.000  -19.018303552   47.229213566  1553.1465   6   8   0.1490   0.3362   0.7416   0.0482  -0.4070  -0.2500   0.00    0.0
2022/01/01 00:13:30.000  -19.018303481   47.229213679  1553.1305   6   8   0.1431   0.3238   0.7187   0.0565  -0.3959  -0.2441   0.00    0.0
2022/01/01 00:14:00.000  -19.018303375   47.229213673  1553.0568   6   8   0.1378   0.3123   0.6971   0.0625  -0.3855  -0.2385   0.00    0.0
2022/01/01 00:14:30.000  -19.018303303   47.229213756  1552.9890   6   8   0.1330   0.3016   0.6768   0.0672  -0.3756  -0.2331   0.00    0.0
2022/01/01 00:15:00.000  -19.018303263   47.229213807  1552.9278   6   8   0.1289   0.2923   0.6599   0.0705  -0.3670  -0.2282   0.00    0.0
2022/01/01 00:15:30.000  -19.018303237   47.229213623  1552.9255   6   8   0.1244   0.2829   0.6408   0.0732  -0.3578  -0.2233   0.00    0.0
2022/01/01 00:16:00.000  -19.018303209   47.229213489  1552.9365   6   8   0.1205   0.2741   0.6228   0.0755  -0.3491  -0.2186   0.00    0.0
2022/01/01 00:16:30.000  -19.018303154   47.229213370  1552.9351   6   7   0.1170   0.2668   0.6068   0.0779  -0.3419  -0.2144   0.00    0.0
2022/01/01 00:17:00.000  -19.018303112   47.229213210  1552.9250   6   7   0.1139   0.2597   0.5906   0.0800  -0.3342  -0.2102   0.00    0.0
2022/01/01 00:17:30.000  -19.018303099   47.229213205  1552.9100   6   7   0.1109   0.2530   0.5751   0.0817  -0.3268  -0.2061   0.00    0.0
2022/01/01 00:18:00.000  -19.018303083   47.229213143  1552.9157   6   7   0.1081   0.2467   0.5602   0.0829  -0.3197  -0.2021   0.00    0.0
2022/01/01 00:18:30.000  -19.018303096   47.229213047  1552.9238   6   7   0.1055   0.2407   0.5458   0.0837  -0.3127  -0.1982   0.00    0.0
2022/01/01 00:19:00.000  -19.018303141   47.229213003  1552.9459   6   7   0.1030   0.2350   0.5318   0.0843  -0.3058  -0.1943   0.00    0.0
2022/01/01 00:19:30.000  -19.018303145   47.229212959  1552.9360   6   7   0.1006   0.2295   0.5182   0.0846  -0.2990  -0.1904   0.00    0.0
2022/01/01 00:20:00.000  -19.018303112   47.229212891  1552.9357   6   7   0.0987   0.2246   0.5070   0.0848  -0.2931  -0.1868   0.00    0.0
2022/01/01 00:20:30.000  -19.018303146   47.229212873  1552.9786   6   7   0.0961   0.2194   0.4931   0.0845  -0.2863  -0.1829   0.00    0.0
2022/01/01 00:21:00.000  -19.018303201   47.229212831  1552.9921   6   7   0.0940   0.2144   0.4801   0.0842  -0.2797  -0.1790   0.00    0.0
2022/01/01 00:21:30.000  -19.018303213   47.229212917  1552.9961   6   7   0.0919   0.2096   0.4673   0.0837  -0.2731  -0.1751   0.00    0.0
2022/01/01 00:22:00.000  -19.018303242   47.229213012  1552.9792   6   7   0.0899   0.2049   0.4549   0.0830  -0.2666  -0.1713   0.00    0.0
2022/01/01 00:22:30.000  -19.018303307   47.229213065  1552.9726   6   7   0.0879   0.2003   0.4426   0.0822  -0.2602  -0.1674   0.00    0.0
2022/01/01 00:23:00.000  -19.018303252   47.229213036  1552.9862   6   7   0.0860   0.1958   0.4307   0.0814  -0.2539  -0.1636   0.00    0.0
2022/01/01 00:23:30.000  -19.018303215   47.229212937  1552.9928   6   7   0.0841   0.1915   0.4190   0.0804  -0.2476  -0.1598   0.00    0.0
2022/01/01 00:24:00.000  -19.018303166   47.229212848  1552.9689   6   7   0.0822   0.1872   0.4075   0.0793  -0.2413  -0.1560   0.00    0.0
2022/01/01 00:24:30.000  -19.018303142   47.229212832  1552.9507   6   7   0.0804   0.1831   0.3962   0.0781  -0.2351  -0.1522   0.00    0.0
2022/01/01 00:25:00.000  -19.018303158   47.229212769  1552.9520   6   7   0.0792   0.1794   0.3870   0.0771  -0.2296  -0.1487   0.00    0.0
2022/01/01 00:25:30.000  -19.018303196   47.229212658  1552.9693   6   7   0.0770   0.1753   0.3755   0.0756  -0.2234  -0.1449   0.00    0.0
2022/01/01 00:26:00.000  -19.018303220   47.229212541  1553.0122   6   7   0.0753   0.1713   0.3646   0.0741  -0.2173  -0.1411   0.00    0.0
2022/01/01 00:26:30.000  -19.018303260   47.229212477  1553.0298   6   7   0.0736   0.1675   0.3540   0.0727  -0.2113  -0.1373   0.00    0.0
2022/01/01 00:27:00.000  -19.018303229   47.229212434  1553.0054   6   7   0.0719   0.1637   0.3436   0.0712  -0.2053  -0.1336   0.00    0.0
2022/01/01 00:27:30.000  -19.018303240   47.229212508  1553.0076   6   7   0.0703   0.1600   0.3335   0.0697  -0.1995  -0.1299   0.00    0.0
2022/01/01 00:28:00.000  -19.018303233   47.229212475  1553.0302   6   7   0.0687   0.1564   0.3236   0.0682  -0.1937  -0.1263   0.00    0.0
2022/01/01 00:28:30.000  -19.018303251   47.229212430  1553.0510   6   7   0.0672   0.1529   0.3140   0.0666  -0.1880  -0.1227   0.00    0.0
2022/01/01 00:29:00.000  -19.018303272   47.229212489  1553.0472   6   7   0.0657   0.1495   0.3048   0.0651  -0.1825  -0.1192   0.00    0.0
2022/01/01 00:29:30.000  -19.018303256   47.229212594  1553.0230   6   7   0.0642   0.1462   0.2958   0.0635  -0.1770  -0.1158   0.00    0.0
2022/01/01 00:30:00.000  -19.018303275   47.229212659  1553.0186   6   7   0.0634   0.1433   0.2888   0.0624  -0.1722  -0.1128   0.00    0.0
2022/01/01 00:30:30.000  -19.018303296   47.229212604  1553.0270   6   7   0.0614   0.1399   0.2795   0.0605  -0.1671  -0.1095   0.00    0.0
2022/01/01 00:31:00.000  -19.018303307   47.229212568  1553.0121   6   7   0.0600   0.1368   0.2711   0.0590  -0.1619  -0.1062   0.00    0.0
2022/01/01 00:31:30.000  -19.018303340   47.229212589  1553.0061   6   7   0.0587   0.1338   0.2629   0.0575  -0.1568  -0.1030   0.00    0.0
2022/01/01 00:32:00.000  -19.018303326   47.229212584  1552.9910   6   7   0.0573   0.1309   0.2552   0.0559  -0.1518  -0.0998   0.00    0.0
2022/01/01 00:32:30.000  -19.018303365   47.229212517  1552.9635   6   7   0.0561   0.1280   0.2477   0.0544  -0.1470  -0.0968   0.00    0.0
2022/01/01 00:33:00.000  -19.018303375   47.229212569  1552.9875   6   7   0.0548   0.1254   0.2407   0.0530  -0.1421  -0.0939   0.00    0.0
2022/01/01 00:33:30.000  -19.018303356   47.229212572  1552.9841   6   7   0.0536   0.1227   0.2335   0.0516  -0.1378  -0.0910   0.00    0.0
2022/01/01 00:34:00.000  -19.018303370   47.229212592  1552.9773   6   7   0.0525   0.1201   0.2269   0.0501  -0.1334  -0.0882   0.00    0.0
2022/01/01 00:34:30.000  -19.018303382   47.229212751  1552.9900   6   7   0.0514   0.1176   0.2205   0.0489  -0.1290  -0.0855   0.00    0.0
2022/01/01 00:35:00.000  -19.018303472   47.229212722  1552.9858   6   7   0.0509   0.1156   0.2159   0.0479  -0.1252  -0.0831   0.00    0.0
2022/01/01 00:35:30.000  -19.018303497   47.229212730  1553.0043   6   7   0.0493   0.1132   0.2091   0.0463  -0.1212  -0.0806   0.00    0.0
2022/01/01 00:36:00.000  -19.018303499   47.229212750  1553.0243   6   7   0.0482   0.1109   0.2033   0.0450  -0.1171  -0.0781   0.00    0.0
2022/01/01 00:36:30.000  -19.018303536   47.229212635  1553.0273   6   7   0.0473   0.1087   0.1978   0.0437  -0.1132  -0.0756   0.00    0.0
2022/01/01 00:37:00.000  -19.018303555   47.229212514  1553.0127   6   7   0.0463   0.1067   0.1925   0.0425  -0.1093  -0.0733   0.00    0.0
2022/01/01 00:37:30.000  -19.018303567   47.229212454  1553.0125   6   7   0.0454   0.1047   0.1875   0.0414  -0.1056  -0.0710   0.00    0.0
2022/01/01 00:38:00.000  -19.018303583   47.229212445  1553.0359   6   7   0.0445   0.1028   0.1827   0.0403  -0.1021  -0.0688   0.00    0.0
2022/01/01 00:38:30.000  -19.018303562   47.229212410  1553.0502   6   7   0.0436   0.1010   0.1781   0.0392  -0.0986  -0.0667   0.00    0.0
2022/01/01 00:39:00.000  -19.018303573   47.229212352  1553.0458   6   7   0.0428   0.0992   0.1737   0.0381  -0.0952  -0.0646   0.00    0.0
2022/01/01 00:39:30.000  -19.018303589   47.229212347  1553.0560   6   7   0.0420   0.0975   0.1695   0.0370  -0.0919  -0.0627   0.00    0.0
2022/01/01 00:40:00.000  -19.018303602   47.229212325  1553.0666   6   7   0.0418   0.0962   0.1670   0.0364  -0.0888  -0.0608   0.00    0.0
2022/01/01 00:40:30.000  -19.018303649   47.229212261  1553.0674   6   7   0.0405   0.0945   0.1621   0.0351  -0.0858  -0.0590   0.00    0.0
2022/01/01 00:41:00.000  -19.018303674   47.229212271  1553.0856   6   7   0.0398   0.0930   0.1584   0.0341  -0.0826  -0.0572   0.00    0.0
2022/01/01 00:41:30.000  -19.018303687   47.229212291  1553.0984   6   7   0.0391   0.0916   0.1548   0.0332  -0.0796  -0.0554   0.00    0.0
2022/01/01 00:42:00.000  -19.018303750   47.229212295  1553.0921   6   7   0.0384   0.0902   0.1514   0.0323  -0.0766  -0.0537   0.00    0.0
2022/01/01 00:42:30.000  -19.018303761   47.229212316  1553.0956   6   7   0.0378   0.0889   0.1482   0.0315  -0.0737  -0.0520   0.00    0.0
2022/01/01 00:43:00.000  -19.018303791   47.229212307  1553.1030   6   7   0.0371   0.0876   0.1452   0.0306  -0.0708  -0.0504   0.00    0.0
2022/01/01 00:43:30.000  -19.018303834   47.229212341  1553.1138   6   7   0.0365   0.0864   0.1424   0.0299  -0.0680  -0.0488   0.00    0.0
2022/01/01 00:44:00.000  -19.018303803   47.229212363  1553.1204   6   7   0.0360   0.0853   0.1396   0.0290  -0.0653  -0.0474   0.00    0.0
2022/01/01 00:44:30.000  -19.018303818   47.229212326  1553.1098   6   7   0.0354   0.0842   0.1369   0.0283  -0.0626  -0.0459   0.00    0.0
2022/01/01 00:45:00.000  -19.018303859   47.229212339  1553.0919   6   7   0.0355   0.0835   0.1360   0.0279  -0.0599  -0.0444   0.00    0.0
2022/01/01 00:45:30.000  -19.018303843   47.229212440  1553.0901   6   7   0.0343   0.0822   0.1323   0.0268  -0.0577  -0.0433   0.00    0.0
2022/01/01 00:46:00.000  -19.018303850   47.229212473  1553.0856   6   7   0.0338   0.0812   0.1300   0.0262  -0.0551  -0.0419   0.00    0.0
2022/01/01 00:46:30.000  -19.018303857   47.229212460  1553.0957   6   7   0.0332   0.0803   0.1278   0.0254  -0.0525  -0.0406   0.00    0.0
2022/01/01 00:47:00.000  -19.018303833   47.229212487  1553.0954   6   7   0.0328   0.0794   0.1257   0.0249  -0.0499  -0.0394   0.00    0.0
2022/01/01 00:47:30.000  -19.018303813   47.229212525  1553.1025   6   7   0.0324   0.0785   0.1238   0.0241  -0.0473  -0.0381   0.00    0.0
2022/01/01 00:48:00.000  -19.018303790   47.229212564  1553.0971   6   7   0.0319   0.0778   0.1219   0.0236  -0.0447  -0.0368   0.00    0.0
2022/01/01 00:48:30.000  -19.018303801   47.229212617  1553.0878   6   7   0.0315   0.0770   0.1202   0.0230  -0.0420  -0.0357   0.00    0.0
2022/01/01 00:49:00.000  -19.018303809   47.229212676  1553.0666   6   7   0.0311   0.0763   0.1185   0.0224  -0.0395  -0.0346   0.00    0.0
2022/01/01 00:49:30.000  -19.018303821   47.229212697  1553.0517   6   7   0.0307   0.0756   0.1168   0.0218  -0.0368  -0.0334   0.00    0.0
2022/01/01 00:50:00.000  -19.018303782   47.229212734  1553.0548   6   7   0.0310   0.0752   0.1169   0.0217  -0.0338  -0.0322   0.00    0.0
2022/01/01 00:50:30.000  -19.018303799   47.229212724  1553.0547   6   7   0.0300   0.0744   0.1141   0.0208  -0.0316  -0.0315   0.00    0.0
2022/01/01 00:51:00.000  -19.018303778   47.229212696  1553.0589   6   7   0.0297   0.0738   0.1126   0.0203  -0.0288  -0.0304   0.00    0.0
2022/01/01 00:51:30.000  -19.018303771   47.229212667  1553.0397   6   7   0.0294   0.0732   0.1113   0.0199  -0.0257  -0.0294   0.00    0.0
2022/01/01 00:52:00.000  -19.018303800   47.229212674  1553.0221   6   7   0.0290   0.0726   0.1100   0.0194  -0.0224  -0.0284   0.00    0.0
2022/01/01 00:52:30.000  -19.018303794   47.229212756  1553.0282   6   7   0.0287   0.0721   0.1089   0.0189  -0.0188  -0.0274   0.00    0.0
2022/01/01 00:53:00.000  -19.018303803   47.229212833  1553.0263   6   7   0.0284   0.0716   0.1078   0.0185  -0.0145  -0.0265   0.00    0.0
2022/01/01 00:53:30.000  -19.018303799   47.229212846  1553.0314   6   7   0.0281   0.0711   0.1067   0.0180  -0.0088  -0.0256   0.00    0.0
2022/01/01 00:54:00.000  -19.018303809   47.229212808  1553.0136   6   7   0.0278   0.0706   0.1057   0.0176   0.0068  -0.0247   0.00    0.0
2022/01/01 00:54:30.000  -19.018303809   47.229212803  1553.0146   6   7   0.0275   0.0702   0.1047   0.0172   0.0128  -0.0238   0.00    0.0
2022/01/01 00:55:00.000  -19.018303830   47.229212791  1553.0009   6   7   0.0280   0.0700   0.1057   0.0172   0.0176  -0.0228   0.00    0.0
2022/01/01 00:55:30.000  -19.018303827   47.229212773  1552.9906   6   7   0.0271   0.0694   0.1030   0.0166   0.0191  -0.0223   0.00    0.0
2022/01/01 00:56:00.000  -19.018303817   47.229212749  1552.9889   6   7   0.0268   0.0689   0.1020   0.0161   0.0216  -0.0214   0.00    0.0
2022/01/01 00:56:30.000  -19.018303851   47.229212806  1552.9906   6   7   0.0266   0.0685   0.1012   0.0157   0.0238  -0.0204   0.00    0.0
2022/01/01 00:57:00.000  -19.018303824   47.229212850  1552.9910   6   7   0.0263   0.0681   0.1004   0.0152   0.0256  -0.0197   0.00    0.0
2022/01/01 00:57:30.000  -19.018303819   47.229212904  1553.0049   6   7   0.0262   0.0678   0.0996   0.0149   0.0271  -0.0189   0.00    0.0
2022/01/01 00:58:00.000  -19.018303837   47.229212920  1553.0089   6   7   0.0259   0.0674   0.0989   0.0147   0.0285  -0.0180   0.00    0.0
2022/01/01 00:58:30.000  -19.018303863   47.229212873  1553.0017   6   7   0.0257   0.0670   0.0981   0.0142   0.0298  -0.0173   0.00    0.0
2022/01/01 00:59:00.000  -19.018303846   47.229212809  1552.9993   6   7   0.0255   0.0667   0.0974   0.0138   0.0309  -0.0165   0.00    0.0
2022/01/01 00:59:30.000  -19.018303848   47.229212787  1552.9964   6   7   0.0254   0.0663   0.0967   0.0136   0.0318  -0.0156   0.00    0.0
2022/01/01 01:00:00.000  -19.018303853   47.229212806  1552.9935   6   7   0.0259   0.0662   0.0980   0.0137   0.0334  -0.0147   0.00    0.0
2022/01/01 01:00:30.000  -19.018303903   47.229212829  1552.9798   6   7   0.0250   0.0655   0.0953   0.0129   0.0330  -0.0144   0.00    0.0
2022/01/01 01:01:00.000  -19.018303893   47.229212873  1552.9842   6   7   0.0248   0.0651   0.0946   0.0125   0.0338  -0.0135   0.00    0.0
2022/01/01 01:01:30.000  -19.018303888   47.229212905  1552.9857   6   7   0.0246   0.0648   0.0941   0.0121   0.0344  -0.0129   0.00    0.0
2022/01/01 01:02:00.000  -19.018303863   47.229212909  1552.9841   6   7   0.0245   0.0644   0.0933   0.0118   0.0349  -0.0120   0.00    0.0
2022/01/01 01:02:30.000  -19.018303861   47.229212893  1552.9761   6   7   0.0243   0.0640   0.0926   0.0114   0.0354  -0.0109   0.00    0.0
2022/01/01 01:03:00.000  -19.018303892   47.229212851  1552.9726   6   7   0.0241   0.0637   0.0920   0.0111   0.0359  -0.0102   0.00    0.0
2022/01/01 01:03:30.000  -19.018303884   47.229212866  1552.9692   6   7   0.0240   0.0633   0.0915   0.0110   0.0363  -0.0094   0.00    0.0
2022/01/01 01:04:00.000  -19.018303910   47.229212886  1552.9701   6   7   0.0239   0.0630   0.0909   0.0105   0.0367  -0.0084   0.00    0.0
2022/01/01 01:04:30.000  -19.018303910   47.229212946  1552.9728   6   8   0.0237   0.0626   0.0903   0.0102   0.0369  -0.0074   0.00    0.0
2022/01/01 01:05:00.000  -19.018303879   47.229213029  1552.9756   6   8   0.0242   0.0623   0.0885   0.0091   0.0359  -0.0120   0.00    0.0
2022/01/01 01:05:30.000  -19.018303907   47.229213052  1552.9796   6   8   0.0232   0.0616   0.0847   0.0083   0.0349  -0.0123   0.00    0.0
2022/01/01 01:06:00.000  -19.018303889   47.229213121  1552.9880   6   8   0.0230   0.0611   0.0832   0.0076   0.0344  -0.0125   0.00    0.0
2022/01/01 01:06:30.000  -19.018303897   47.229213095  1552.9809   6   8   0.0228   0.0607   0.0820   0.0070   0.0341  -0.0125   0.00    0.0
2022/01/01 01:07:00.000  -19.018303894   47.229213089  1552.9848   6   8   0.0227   0.0601   0.0809   0.0063   0.0337  -0.0125   0.00    0.0
2022/01/01 01:07:30.000  -19.018303936   47.229213097  1552.9783   6   8   0.0226   0.0597   0.0798   0.0057   0.0333  -0.0122   0.00    0.0
2022/01/01 01:08:00.000  -19.018303931   47.229213100  1552.9745   6   8   0.0225   0.0591   0.0788   0.0048   0.0328  -0.0121   0.00    0.0
2022/01/01 01:08:30.000  -19.018303941   47.229213084  1552.9808   6   9   0.0223   0.0586   0.0778   0.0044   0.0324  -0.0119   0.00    0.0
2022/01/01 01:09:00.000  -19.018303972   47.229213079  1552.9762   6   9   0.0221   0.0580   0.0757   0.0038   0.0312  -0.0105   0.00    0.0
2022/01/01 01:09:30.000  -19.018303997   47.229213075  1552.9639   6   9   0.0219   0.0574   0.0743   0.0038   0.0304  -0.0099   0.00    0.0
2022/01/01 01:10:00.000  -19.018303978   47.229213066  1552.9633   6   9   0.0227   0.0571   0.0745   0.0035   0.0296  -0.0094   0.00    0.0
2022/01/01 01:10:30.000  -19.018303995   47.229213091  1552.9607   6   9   0.0218   0.0563   0.0721   0.0021   0.0288  -0.0088   0.00    0.0
2022/01/01 01:11:00.000  -19.018303994   47.229213113  1552.9799   6   9   0.0217   0.0557   0.0710   0.0009   0.0280  -0.0081   0.00    0.0
2022/01/01 01:11:30.000  -19.018303922   47.229213139  1552.9812   6   8   0.0222   0.0560   0.0723  -0.0075   0.0236   0.0065   0.00    0.0
2022/01/01 01:12:00.000  -19.018303936   47.229213172  1552.9738   6   8   0.0222   0.0557   0.0714  -0.0074   0.0235   0.0067   0.00    0.0
2022/01/01 01:12:30.000  -19.018303916   47.229213235  1552.9974   6   8   0.0220   0.0555   0.0706  -0.0075   0.0233   0.0071   0.00    0.0
2022/01/01 01:13:00.000  -19.018303913   47.229213256  1552.9939   6   8   0.0220   0.0552   0.0698  -0.0077   0.0231   0.0076   0.00    0.0
2022/01/01 01:13:30.000  -19.018303917   47.229213227  1552.9980   6   8   0.0219   0.0549   0.0691  -0.0078   0.0230   0.0078   0.00    0.0
2022/01/01 01:14:00.000  -19.018303971   47.229213235  1552.9910   6   8   0.0217   0.0546   0.0683  -0.0079   0.0228   0.0081   0.00    0.0
2022/01/01 01:14:30.000  -19.018303966   47.229213231  1552.9832   6   8   0.0217   0.0543   0.0677  -0.0077   0.0226   0.0085   0.00    0.0
2022/01/01 01:15:00.000  -19.018303991   47.229213211  1552.9722   6   8   0.0222   0.0543   0.0688  -0.0082   0.0219   0.0094   0.00    0.0
2022/01/01 01:15:30.000  -19.018304004   47.229213203  1552.9859   6   8   0.0213   0.0536   0.0663  -0.0075   0.0223   0.0085   0.00    0.0
2022/01/01 01:16:00.000  -19.018303978   47.229213174  1553.0031   6   8   0.0212   0.0533   0.0657  -0.0079   0.0220   0.0088   0.00    0.0
2022/01/01 01:16:30.000  -19.018303996   47.229213172  1552.9844   6   8   0.0212   0.0529   0.0652  -0.0076   0.0218   0.0092   0.00    0.0
2022/01/01 01:17:00.000  -19.018304006   47.229213195  1552.9898   6   8   0.0212   0.0525   0.0646  -0.0077   0.0216   0.0095   0.00    0.0
2022/01/01 01:17:30.000  -19.018304005   47.229213236  1552.9813   6   8   0.0212   0.0521   0.0641  -0.0076   0.0213   0.0097   0.00    0.0
2022/01/01 01:18:00.000  -19.018303966   47.229213247  1553.0015   6   8   0.0211   0.0517   0.0636  -0.0075   0.0211   0.0099   0.00    0.0
2022/01/01 01:18:30.000  -19.018303973   47.229213251  1552.9902   6   8   0.0210   0.0513   0.0631  -0.0076   0.0208   0.0101   0.00    0.0
2022/01/01 01:19:00.000  -19.018303960   47.229213328  1553.0006   6   8   0.0209   0.0508   0.0626  -0.0074   0.0205   0.0103   0.00    0.0
2022/01/01 01:19:30.000  -19.018304001   47.229213353  1553.0015   6   8   0.0209   0.0504   0.0621  -0.0075   0.0203   0.0105   0.00    0.0
2022/01/01 01:20:00.000  -19.018303978   47.229213334  1553.0079   6   8   0.0213   0.0502   0.0634  -0.0075   0.0193   0.0115   0.00    0.0
2022/01/01 01:20:30.000  -19.018303995   47.229213330  1553.0006   6   8   0.0207   0.0495   0.0612  -0.0072   0.0196   0.0107   0.00    0.0
2022/01/01 01:21:00.000  -19.018304034   47.229213299  1553.0004   6   8   0.0206   0.0490   0.0608  -0.0071   0.0194   0.0108   0.00    0.0
2022/01/01 01:21:30.000  -19.018304026   47.229213298  1553.0005   6   8   0.0205   0.0486   0.0603  -0.0071   0.0191   0.0108   0.00    0.0
2022/01/01 01:22:00.000  -19.018304038   47.229213267  1552.9995   6   8   0.0205   0.0481   0.0599  -0.0067   0.0188   0.0110   0.00    0.0
2022/01/01 01:22:30.000  -19.018304045   47.229213291  1553.0237   6   8   0.0204   0.0476   0.0596  -0.0068   0.0185   0.0111   0.00    0.0
2022/01/01 01:23:00.000  -19.018304035   47.229213369  1553.0212   6   8   0.0203   0.0472   0.0592  -0.0066   0.0182   0.0112   0.00    0.0
2022/01/01 01:23:30.000  -19.018304034   47.229213404  1553.0130   6   8   0.0203   0.0466   0.0589  -0.0062   0.0179   0.0112   0.00    0.0
2022/01/01 01:24:00.000  -19.018304033   47.229213452  1553.0147   6   8   0.0202   0.0462   0.0585  -0.0065   0.0176   0.0114   0.00    0.0
2022/01/01 01:24:30.000  -19.018303992   47.229213451  1553.0031   6   8   0.0202   0.0457   0.0582  -0.0065   0.0173   0.0114   0.00    0.0
2022/01/01 01:25:00.000  -19.018304010   47.229213478  1552.9964   6   8   0.0208   0.0456   0.0599  -0.0066   0.0164   0.0123   0.00    0.0
2022/01/01 01:25:30.000  -19.018304034   47.229213477  1553.0029   6   8   0.0200   0.0448   0.0576  -0.0062   0.0167   0.0115   0.00    0.0
2022/01/01 01:26:00.000  -19.018303986   47.229213501  1553.0059   6   8   0.0201   0.0443   0.0572  -0.0058   0.0164   0.0116   0.00    0.0
2022/01/01 01:26:30.000  -19.018304054   47.229213470  1553.0039   6   8   0.0200   0.0438   0.0569  -0.0055   0.0161   0.0116   0.00    0.0
2022/01/01 01:27:00.000  -19.018304038   47.229213523  1553.0111   6   8   0.0199   0.0434   0.0567  -0.0058   0.0158   0.0116   0.00    0.0
2022/01/01 01:27:30.000  -19.018304024   47.229213532  1553.0190   6   8   0.0198   0.0429   0.0564  -0.0056   0.0155   0.0118   0.00    0.0
2022/01/01 01:28:00.000  -19.018304111   47.229213553  1553.0081   6   8   0.0199   0.0425   0.0562  -0.0054   0.0153   0.0116   0.00    0.0
2022/01/01 01:28:30.000  -19.018304105   47.229213536  1553.0104   6   8   0.0198   0.0420   0.0560  -0.0054   0.0150   0.0118   0.00    0.0
2022/01/01 01:29:00.000  -19.018304085   47.229213561  1552.9993   6   8   0.0197   0.0416   0.0557  -0.0050   0.0146   0.0117   0.00    0.0
2022/01/01 01:29:30.000  -19.018304088   47.229213588  1553.0009   6   8   0.0196   0.0412   0.0554  -0.0054   0.0145   0.0118   0.00    0.0
2022/01/01 01:30:00.000  -19.018304037   47.229213656  1553.0188   6   8   0.0203   0.0411   0.0571  -0.0053   0.0133   0.0127   0.00    0.0
2022/01/01 01:30:30.000  -19.018303989   47.229213716  1553.0315   6   8   0.0196   0.0404   0.0548  -0.0045   0.0139   0.0116   0.00    0.0
2022/01/01 01:31:00.000  -19.018304022   47.229213752  1553.0330   6   8   0.0195   0.0399   0.0545  -0.0047   0.0136   0.0117   0.00    0.0
2022/01/01 01:31:30.000  -19.018304012   47.229213759  1553.0296   6   8   0.0195   0.0395   0.0543  -0.0044   0.0133   0.0115   0.00    0.0
2022/01/01 01:32:00.000  -19.018304042   47.229213708  1553.0263   6   8   0.0194   0.0392   0.0541  -0.0037   0.0131   0.0115   0.00    0.0
2022/01/01 01:32:30.000  -19.018304089   47.229213742  1553.0208   6   8   0.0194   0.0388   0.0539  -0.0040   0.0128   0.0116   0.00    0.0
2022/01/01 01:33:00.000  -19.018304116   47.229213681  1553.0193   6   8   0.0194   0.0384   0.0538  -0.0038   0.0126   0.0115   0.00    0.0
2022/01/01 01:33:30.000  -19.018304072   47.229213705  1553.0245   6   8   0.0194   0.0381   0.0537  -0.0040   0.0124   0.0115   0.00    0.0
2022/01/01 01:34:00.000  -19.018304062   47.229213762  1553.0225   6   8   0.0193   0.0377   0.0535  -0.0037   0.0121   0.0115   0.00    0.0
2022/01/01 01:34:30.000  -19.018304080   47.229213736  1553.0256   6   8   0.0192   0.0374   0.0534  -0.0035   0.0118   0.0115   0.00    0.0
2022/01/01 01:35:00.000  -19.018304048   47.229213760  1553.0249   6   8   0.0199   0.0373   0.0550  -0.0042   0.0109   0.0121   0.00    0.0
2022/01/01 01:35:30.000  -19.018304101   47.229213786  1553.0139   6   8   0.0192   0.0368   0.0530  -0.0030   0.0115   0.0113   0.00    0.0
2022/01/01 01:36:00.000  -19.018304075   47.229213804  1553.0221   6   8   0.0192   0.0364   0.0530  -0.0028   0.0110   0.0112   0.00    0.0
2022/01/01 01:36:30.000  -19.018304048   47.229213862  1553.0180   6   8   0.0191   0.0360   0.0528  -0.0031   0.0109   0.0113   0.00    0.0
2022/01/01 01:37:00.000  -19.018304111   47.229213845  1553.0217   6   8   0.0192   0.0358   0.0527  -0.0032   0.0105   0.0113   0.00    0.0
2022/01/01 01:37:30.000  -19.018304113   47.229213858  1553.0210   6   8   0.0191   0.0354   0.0525  -0.0031   0.0105   0.0112   0.00    0.0
2022/01/01 01:38:00.000  -19.018304090   47.229213857  1553.0271   6   8   0.0191   0.0352   0.0524  -0.0028   0.0103   0.0112   0.00    0.0
2022/01/01 01:38:30.000  -19.018304060   47.229213897  1553.0365   6   8   0.0191   0.0349   0.0524  -0.0026   0.0099   0.0111   0.00    0.0
2022/01/01 01:39:00.000  -19.018304077   47.229213956  1553.0390   6   8   0.0191   0.0347   0.0523  -0.0017   0.0099   0.0110   0.00    0.0
2022/01/01 01:39:30.000  -19.018304076   47.229213968  1553.0452   6   8   0.0191   0.0344   0.0521  -0.0005   0.0095   0.0108   0.00    0.0
2022/01/01 01:40:00.000  -19.018304112   47.229213940  1553.0431   6   8   0.0196   0.0345   0.0541  -0.0015   0.0089   0.0118   0.00    0.0
2022/01/01 01:40:30.000  -19.018304140   47.229213911  1553.0266   6   8   0.0190   0.0338   0.0520  -0.0012   0.0090   0.0108   0.00    0.0
2022/01/01 01:41:00.000  -19.018304150   47.229213867  1553.0160   6   8   0.0191   0.0336   0.0520  -0.0002   0.0088   0.0106   0.00    0.0
2022/01/01 01:41:30.000  -19.018304126   47.229213846  1553.0158   6   8   0.0190   0.0333   0.0518   0.0010   0.0087   0.0104   0.00    0.0
2022/01/01 01:42:00.000  -19.018304078   47.229213845  1553.0198   6   8   0.0190   0.0330   0.0517   0.0022   0.0083   0.0105   0.00    0.0
2022/01/01 01:42:30.000  -19.018304074   47.229213886  1553.0369   6   8   0.0190   0.0329   0.0517   0.0014   0.0081   0.0103   0.00    0.0
2022/01/01 01:43:00.000  -19.018304038   47.229213916  1553.0378   6   8   0.0190   0.0325   0.0516   0.0018   0.0080   0.0103   0.00    0.0
2022/01/01 01:43:30.000  -19.018304057   47.229213947  1553.0193   6   8   0.0190   0.0324   0.0516   0.0023   0.0078   0.0099   0.00    0.0
2022/01/01 01:44:00.000  -19.018304099   47.229213904  1553.0201   6   8   0.0189   0.0322   0.0516   0.0029   0.0075   0.0101   0.00    0.0
2022/01/01 01:44:30.000  -19.018304075   47.229213867  1553.0228   6   8   0.0190   0.0320   0.0516   0.0032   0.0073   0.0097   0.00    0.0
2022/01/01 01:45:00.000  -19.018304092   47.229213870  1553.0197   6   8   0.0195   0.0322   0.0538   0.0023   0.0064   0.0111   0.00    0.0
2022/01/01 01:45:30.000  -19.018304152   47.229213898  1553.0117   6   8   0.0190   0.0316   0.0514   0.0032   0.0067   0.0097   0.00    0.0
2022/01/01 01:46:00.000  -19.018304086   47.229213877  1553.0188   6   8   0.0191   0.0314   0.0515   0.0039   0.0065   0.0092   0.00    0.0
2022/01/01 01:46:30.000  -19.018304043   47.229213863  1553.0205   6   8   0.0190   0.0312   0.0514   0.0039   0.0061   0.0093   0.00    0.0
2022/01/01 01:47:00.000  -19.018304035   47.229213913  1553.0250   6   8   0.0189   0.0309   0.0513   0.0044   0.0060   0.0092   0.00    0.0
2022/01/01 01:47:30.000  -19.018304018   47.229213903  1553.0191   6   8   0.0190   0.0308   0.0513   0.0045   0.0058   0.0089   0.00    0.0
2022/01/01 01:48:00.000  -19.018304050   47.229213923  1553.0075   6   8   0.0189   0.0306   0.0514   0.0041   0.0058   0.0090   0.00    0.0
2022/01/01 01:48:30.000  -19.018304066   47.229213944  1553.0043   6   8   0.0190   0.0304   0.0513   0.0047   0.0050   0.0088   0.00    0.0
2022/01/01 01:49:00.000  -19.018304057   47.229213937  1552.9980   6   8   0.0190   0.0302   0.0514   0.0043   0.0048   0.0086   0.00    0.0
2022/01/01 01:49:30.000  -19.018304069   47.229213925  1552.9908   6   8   0.0190   0.0301   0.0513   0.0043   0.0049   0.0082   0.00    0.0
2022/01/01 01:50:00.000  -19.018304082   47.229213944  1552.9945   6   8   0.0195   0.0303   0.0534   0.0045   0.0035   0.0095   0.00    0.0
2022/01/01 01:50:30.000  -19.018304071   47.229213985  1552.9986   6   8   0.0190   0.0297   0.0514   0.0051   0.0037   0.0078   0.00    0.0
2022/01/01 01:51:00.000  -19.018304031   47.229214026  1552.9943   6   8   0.0190   0.0295   0.0513   0.0051   0.0041   0.0077   0.00    0.0
2022/01/01 01:51:30.000  -19.018304026   47.229214022  1553.0098   6   8   0.0190   0.0294   0.0513   0.0055   0.0036   0.0073   0.00    0.0
2022/01/01 01:52:00.000  -19.018304066   47.229213992  1553.0091   6   8   0.0191   0.0292   0.0514   0.0057   0.0032   0.0069   0.00    0.0
2022/01/01 01:52:30.000  -19.018304079   47.229213971  1553.0029   6   8   0.0192   0.0291   0.0515   0.0054   0.0026   0.0065   0.00    0.0
2022/01/01 01:53:00.000  -19.018304028   47.229213981  1553.0066   6   8   0.0192   0.0290   0.0514   0.0056   0.0022   0.0064   0.00    0.0
2022/01/01 01:53:30.000  -19.018304094   47.229213931  1553.0096   6   8   0.0190   0.0287   0.0515   0.0056   0.0018   0.0059   0.00    0.0
2022/01/01 01:54:00.000  -19.018304092   47.229213994  1553.0006   6   8   0.0191   0.0286   0.0515   0.0057   0.0007   0.0057   0.00    0.0
2022/01/01 01:54:30.000  -19.018304060   47.229213998  1553.0162   6   8   0.0192   0.0285   0.0515   0.0060  -0.0009   0.0051   0.00    0.0
2022/01/01 01:55:00.000  -19.018304062   47.229214020  1553.0140   6   8   0.0197   0.0287   0.0531   0.0056  -0.0036   0.0063   0.00    0.0
2022/01/01 01:55:30.000  -19.018304106   47.229213967  1553.0157   6   8   0.0192   0.0282   0.0516   0.0061  -0.0023   0.0045   0.00    0.0
2022/01/01 01:56:00.000  -19.018304035   47.229213993  1553.0068   6   8   0.0191   0.0280   0.0517   0.0058  -0.0022   0.0039   0.00    0.0
2022/01/01 01:56:30.000  -19.018304024   47.229214042  1553.0143   6   8   0.0192   0.0279   0.0518   0.0066  -0.0034   0.0029   0.00    0.0
2022/01/01 01:57:00.000  -19.018304075   47.229214027  1553.0134   6   8   0.0193   0.0278   0.0519   0.0063  -0.0036   0.0018   0.00    0.0
2022/01/01 01:57:30.000  -19.018304083   47.229214030  1553.0027   6   8   0.0193   0.0277   0.0520   0.0066  -0.0038  -0.0015   0.00    0.0
2022/01/01 01:58:00.000  -19.018304104   47.229214035  1553.0112   6   8   0.0194   0.0276   0.0520   0.0065  -0.0042  -0.0032   0.00    0.0
2022/01/01 01:58:30.000  -19.018304086   47.229214054  1553.0039   6   8   0.0193   0.0274   0.0520   0.0066  -0.0040  -0.0031   0.00    0.0
2022/01/01 01:59:00.000  -19.018304105   47.229214031  1553.0067   6   8   0.0195   0.0273   0.0521   0.0069  -0.0047  -0.0042   0.00    0.0
2022/01/01 01:59:30.000  -19.018304078   47.229214036  1553.0119   6   8   0.0193   0.0272   0.0522   0.0066  -0.0047  -0.0043   0.00    0.0
2022/01/01 02:00:00.000  -19.018304096   47.229214023  1553.0137   6   8   0.0200   0.0274   0.0539   0.0073  -0.0048  -0.0032   0.00    0.0
2022/01/01 02:00:30.000  -19.018304118   47.229214054  1553.0115   6   8   0.0194   0.0268   0.0524   0.0069  -0.0051  -0.0057   0.00    0.0
2022/01/01 02:01:00.000  -19.018304076   47.229214071  1553.0129   6   8   0.0195   0.0268   0.0525   0.0070  -0.0059  -0.0061   0.00    0.0
2022/01/01 02:01:30.000  -19.018304054   47.229214017  1552.9980   6   8   0.0196   0.0267   0.0525   0.0071  -0.0057  -0.0068   0.00    0.0
2022/01/01 02:02:00.000  -19.018304069   47.229214034  1552.9867   6   8   0.0195   0.0266   0.0527   0.0070  -0.0057  -0.0070   0.00    0.0
2022/01/01 02:02:30.000  -19.018304093   47.229214055  1553.0010   6   8   0.0195   0.0264   0.0528   0.0074  -0.0061  -0.0074   0.00    0.0
2022/01/01 02:03:00.000  -19.018304065   47.229214079  1553.0007   6   8   0.0197   0.0263   0.0530   0.0075  -0.0062  -0.0080   0.00    0.0
2022/01/01 02:03:30.000  -19.018304076   47.229214060  1553.0019   6   8   0.0197   0.0264   0.0531   0.0071  -0.0062  -0.0082   0.00    0.0
2022/01/01 02:04:00.000  -19.018304040   47.229214081  1553.0045   6   8   0.0197   0.0263   0.0532   0.0075  -0.0064  -0.0085   0.00    0.0
2022/01/01 02:04:30.000  -19.018304040   47.229214091  1553.0095   6   8   0.0197   0.0262   0.0533   0.0074  -0.0063  -0.0091   0.00    0.0
2022/01/01 02:05:00.000  -19.018304083   47.229214077  1553.0042   6   8   0.0203   0.0265   0.0549   0.0077  -0.0067  -0.0088   0.00    0.0
2022/01/01 02:05:30.000  -19.018304034   47.229214061  1552.9955   6   8   0.0199   0.0260   0.0536   0.0078  -0.0069  -0.0096   0.00    0.0
2022/01/01 02:06:00.000  -19.018304022   47.229214088  1552.9965   6   8   0.0199   0.0258   0.0538   0.0080  -0.0071  -0.0100   0.00    0.0
2022/01/01 02:06:30.000  -19.018304022   47.229214085  1552.9936   6   8   0.0200   0.0258   0.0539   0.0078  -0.0069  -0.0105   0.00    0.0
2022/01/01 02:07:00.000  -19.018304016   47.229214048  1552.9953   6   8   0.0200   0.0257   0.0540   0.0080  -0.0072  -0.0106   0.00    0.0
2022/01/01 02:07:30.000  -19.018304021   47.229214082  1552.9933   6   8   0.0201   0.0256   0.0542   0.0079  -0.0074  -0.0110   0.00    0.0
2022/01/01 02:08:00.000  -19.018303979   47.229214110  1553.0092   6   8   0.0201   0.0255   0.0544   0.0081  -0.0074  -0.0111   0.00    0.0
2022/01/01 02:08:30.000  -19.018303999   47.229214111  1553.0052   6   8   0.0201   0.0255   0.0545   0.0082  -0.0075  -0.0115   0.00    0.0
2022/01/01 02:09:00.000  -19.018304036   47.229214102  1552.9944   6   8   0.0202   0.0253   0.0546   0.0085  -0.0077  -0.0119   0.00    0.0
2022/01/01 02:09:30.000  -19.018304058   47.229214090  1553.0088   6   7   0.0225   0.0254   0.0597   0.0104  -0.0123  -0.0196   0.00    0.0
2022/01/01 02:10:00.000  -19.018304018   47.229214107  1553.0030   6   7   0.0232   0.0259   0.0616   0.0107  -0.0122  -0.0199   0.00    0.0
2022/01/01 02:10:30.000  -19.018303991   47.229214133  1553.0008   6   7   0.0226   0.0253   0.0600   0.0104  -0.0120  -0.0198   0.00    0.0
2022/01/01 02:11:00.000  -19.018304064   47.229214132  1553.0094   6   7   0.0226   0.0252   0.0602   0.0103  -0.0120  -0.0199   0.00    0.0
2022/01/01 02:11:30.000  -19.018304040   47.229214137  1553.0094   6   7   0.0227   0.0252   0.0604   0.0105  -0.0119  -0.0199   0.00    0.0
2022/01/01 02:12:00.000  -19.018304001   47.229214133  1553.0022   6   7   0.0227   0.0252   0.0605   0.0105  -0.0118  -0.0200   0.00    0.0
2022/01/01 02:12:30.000  -19.018304021   47.229214128  1553.0138   6   7   0.0227   0.0250   0.0606   0.0106  -0.0117  -0.0201   0.00    0.0
2022/01/01 02:13:00.000  -19.018303997   47.229214134  1552.9865   6   7   0.0227   0.0250   0.0607   0.0105  -0.0114  -0.0202   0.00    0.0
2022/01/01 02:13:30.000  -19.018303990   47.229214123  1552.9971   6   7   0.0227   0.0250   0.0608   0.0104  -0.0112  -0.0203   0.00    0.0
2022/01/01 02:14:00.000  -19.018304072   47.229214118  1553.0092   6   7   0.0227   0.0248   0.0609   0.0106  -0.0112  -0.0202   0.00    0.0
2022/01/01 02:14:30.000  -19.018304103   47.229214204  1552.9714   6   7   0.0228   0.0247   0.0611   0.0105  -0.0111  -0.0204   0.00    0.0
2022/01/01 02:15:00.000  -19.018304041   47.229214079  1552.9765   6   7   0.0236   0.0251   0.0632   0.0108  -0.0111  -0.0211   0.00    0.0
2022/01/01 02:15:30.000  -19.018304026   47.229214083  1552.9990   6   7   0.0228   0.0246   0.0612   0.0105  -0.0107  -0.0205   0.00    0.0
2022/01/01 02:16:00.000  -19.018304032   47.229214113  1552.9945   6   7   0.0228   0.0245   0.0614   0.0107  -0.0108  -0.0206   0.00    0.0
2022/01/01 02:16:30.000  -19.018304020   47.229214117  1553.0031   6   7   0.0228   0.0244   0.0615   0.0106  -0.0106  -0.0206   0.00    0.0
2022/01/01 02:17:00.000  -19.018304004   47.229214162  1553.0219   6   7   0.0228   0.0244   0.0617   0.0106  -0.0103  -0.0207   0.00    0.0
2022/01/01 02:17:30.000  -19.018303990   47.229214154  1553.0155   6   7   0.0228   0.0243   0.0617   0.0106  -0.0101  -0.0208   0.00    0.0
2022/01/01 02:18:00.000  -19.018304016   47.229214188  1553.0234   6   7   0.0228   0.0243   0.0618   0.0104  -0.0098  -0.0207   0.00    0.0
2022/01/01 02:18:30.000  -19.018304003   47.229214244  1553.0249   6   7   0.0228   0.0242   0.0619   0.0104  -0.0097  -0.0207   0.00    0.0
2022/01/01 02:19:00.000  -19.018304045   47.229214213  1553.0243   6   7   0.0229   0.0241   0.0621   0.0106  -0.0095  -0.0208   0.00    0.0
2022/01/01 02:19:30.000  -19.018304042   47.229214248  1553.0381   6   7   0.0229   0.0241   0.0622   0.0106  -0.0092  -0.0208   0.00    0.0
2022/01/01 02:20:00.000  -19.018304065   47.229214215  1553.0248   6   7   0.0237   0.0244   0.0644   0.0109  -0.0089  -0.0215   0.00    0.0
2022/01/01 02:20:30.000  -19.018304066   47.229214214  1553.0208   6   7   0.0230   0.0239   0.0625   0.0106  -0.0089  -0.0210   0.00    0.0
2022/01/01 02:21:00.000  -19.018304024   47.229214215  1553.0231   6   7   0.0230   0.0239   0.0625   0.0108  -0.0088  -0.0210   0.00    0.0
2022/01/01 02:21:30.000  -19.018304077   47.229214181  1553.0148   6   7   0.0230   0.0237   0.0627   0.0105  -0.0085  -0.0210   0.00    0.0
2022/01/01 02:22:00.000  -19.018304157   47.229214140  1553.0157   6   7   0.0230   0.0237   0.0628   0.0105  -0.0083  -0.0210   0.00    0.0
2022/01/01 02:22:30.000  -19.018304148   47.229214205  1553.0106   6   7   0.0231   0.0237   0.0630   0.0105  -0.0079  -0.0210   0.00    0.0
2022/01/01 02:23:00.000  -19.018304042   47.229214185  1553.0039   6   7   0.0230   0.0236   0.0630   0.0107  -0.0077  -0.0210   0.00    0.0
2022/01/01 02:23:30.000  -19.018304077   47.229214192  1552.9999   6   7   0.0230   0.0235   0.0632   0.0105  -0.0075  -0.0210   0.00    0.0
2022/01/01 02:24:00.000  -19.018304106   47.229214237  1553.0110   6   7   0.0230   0.0235   0.0633   0.0106  -0.0073  -0.0210   0.00    0.0
2022/01/01 02:24:30.000  -19.018304081   47.229214221  1553.0104   6   7   0.0230   0.0235   0.0634   0.0104  -0.0070  -0.0209   0.00    0.0
2022/01/01 02:25:00.000  -19.018304054   47.229214206  1552.9982   6   7   0.0238   0.0238   0.0655   0.0106  -0.0061  -0.0216   0.00    0.0
2022/01/01 02:25:30.000  -19.018304019   47.229214171  1553.0006   6   7   0.0230   0.0233   0.0635   0.0103  -0.0059  -0.0210   0.00    0.0
2022/01/01 02:26:00.000  -19.018304012   47.229214196  1553.0047   6   7   0.0230   0.0232   0.0635   0.0104  -0.0054  -0.0209   0.00    0.0
2022/01/01 02:26:30.000  -19.018304027   47.229214200  1553.0018   6   7   0.0230   0.0233   0.0636   0.0102  -0.0049  -0.0210   0.00    0.0
2022/01/01 02:27:00.000  -19.018304097   47.229214190  1552.9989   6   7   0.0231   0.0231   0.0638   0.0102  -0.0049  -0.0209   0.00    0.0
2022/01/01 02:27:30.000  -19.018304046   47.229214178  1552.9878   6   7   0.0231   0.0230   0.0638   0.0102  -0.0038  -0.0208   0.00    0.0
2022/01/01 02:28:00.000  -19.018304035   47.229214201  1552.9894   6   7   0.0231   0.0231   0.0639   0.0100  -0.0026  -0.0207   0.00    0.0
2022/01/01 02:28:30.000  -19.018304004   47.229214164  1552.9816   6   7   0.0231   0.0230   0.0641   0.0102  -0.0027  -0.0208   0.00    0.0
2022/01/01 02:29:00.000  -19.018304090   47.229214167  1553.0009   6   7   0.0231   0.0228   0.0643   0.0102  -0.0020  -0.0207   0.00    0.0
2022/01/01 02:29:30.000  -19.018304097   47.229214166  1552.9914   6   7   0.0230   0.0226   0.0643   0.0101   0.0017  -0.0206   0.00    0.0
2022/01/01 02:30:00.000  -19.018304073   47.229214174  1552.9898   6   7   0.0241   0.0233   0.0674   0.0103   0.0035  -0.0217   0.00    0.0
2022/01/01 02:30:30.000  -19.018304073   47.229214177  1552.9926   6   7   0.0229   0.0228   0.0645   0.0099   0.0037  -0.0204   0.00    0.0
2022/01/01 02:31:00.000  -19.018304012   47.229214192  1552.9986   6   7   0.0228   0.0227   0.0644   0.0101   0.0043  -0.0202   0.00    0.0
2022/01/01 02:31:30.000  -19.018303986   47.229214171  1552.9975   6   7   0.0229   0.0227   0.0646   0.0100   0.0050  -0.0201   0.00    0.0
2022/01/01 02:32:00.000  -19.018303999   47.229214183  1552.9963   6   7   0.0228   0.0225   0.0646   0.0100   0.0058  -0.0200   0.00    0.0
2022/01/01 02:32:30.000  -19.018304079   47.229214241  1553.0282   6   7   0.0228   0.0225   0.0646   0.0099   0.0059  -0.0198   0.00    0.0
2022/01/01 02:33:00.000  -19.018304070   47.229214299  1553.0384   6   7   0.0227   0.0225   0.0646   0.0098   0.0062  -0.0197   0.00    0.0
2022/01/01 02:33:30.000  -19.018304081   47.229214288  1553.0337   6   7   0.0227   0.0224   0.0647   0.0098   0.0069  -0.0196   0.00    0.0
2022/01/01 02:34:00.000  -19.018304080   47.229214256  1553.0207   6   7   0.0227   0.0223   0.0647   0.0099   0.0070  -0.0195   0.00    0.0
2022/01/01 02:34:30.000  -19.018304085   47.229214201  1553.0157   6   7   0.0227   0.0224   0.0648   0.0098   0.0074  -0.0194   0.00    0.0
2022/01/01 02:35:00.000  -19.018304068   47.229214171  1552.9892   6   7   0.0237   0.0228   0.0678   0.0098   0.0084  -0.0204   0.00    0.0
2022/01/01 02:35:30.000  -19.018304058   47.229214166  1552.9853   6   7   0.0226   0.0222   0.0648   0.0099   0.0080  -0.0190   0.00    0.0
2022/01/01 02:36:00.000  -19.018304084   47.229214134  1552.9815   6   7   0.0227   0.0222   0.0650   0.0096   0.0087  -0.0189   0.00    0.0
2022/01/01 02:36:30.000  -19.018304087   47.229214192  1552.9943   6   7   0.0226   0.0222   0.0652   0.0096   0.0089  -0.0189   0.00    0.0
2022/01/01 02:37:00.000  -19.018304059   47.229214221  1553.0055   6   7   0.0226   0.0220   0.0652   0.0096   0.0093  -0.0188   0.00    0.0
2022/01/01 02:37:30.000  -19.018304066   47.229214247  1553.0285   6   7   0.0227   0.0220   0.0654   0.0097   0.0096  -0.0186   0.00    0.0
2022/01/01 02:38:00.000  -19.018304117   47.229214279  1553.0310   6   7   0.0226   0.0220   0.0655   0.0099   0.0096  -0.0184   0.00    0.0
2022/01/01 02:38:30.000  -19.018304097   47.229214217  1553.0061   6   7   0.0227   0.0220   0.0655   0.0097   0.0101  -0.0183   0.00    0.0
2022/01/01 02:39:00.000  -19.018304034   47.229214227  1553.0082   6   7   0.0226   0.0219   0.0655   0.0095   0.0104  -0.0179   0.00    0.0
2022/01/01 02:39:30.000  -19.018304037   47.229214224  1553.0056   6   7   0.0226   0.0219   0.0655   0.0095   0.0107  -0.0178   0.00    0.0
2022/01/01 02:40:00.000  -19.018304058   47.229214226  1552.9913   6   7   0.0235   0.0225   0.0685   0.0098   0.0117  -0.0188   0.00    0.0
2022/01/01 02:40:30.000  -19.018304019   47.229214174  1552.9851   6   7   0.0226   0.0219   0.0656   0.0094   0.0111  -0.0174   0.00    0.0
2022/01/01 02:41:00.000  -19.018304010   47.229214152  1552.9924   6   8   0.0225   0.0218   0.0657   0.0095   0.0115  -0.0172   0.00    0.0
2022/01/01 02:41:30.000  -19.018304019   47.229214273  1553.0089   6   8   0.0215   0.0218   0.0625   0.0099   0.0108  -0.0123   0.00    0.0
2022/01/01 02:42:00.000  -19.018304021   47.229214249  1553.0092   6   8   0.0213   0.0216   0.0614   0.0099   0.0107  -0.0100   0.00    0.0
2022/01/01 02:42:30.000  -19.018304005   47.229214180  1552.9983   6   8   0.0210   0.0217   0.0607   0.0099   0.0109  -0.0081   0.00    0.0
2022/01/01 02:43:00.000  -19.018304041   47.229214101  1552.9775   6   8   0.0208   0.0216   0.0603   0.0102   0.0108  -0.0065   0.00    0.0
2022/01/01 02:43:30.000  -19.018304008   47.229214164  1552.9894   6   8   0.0207   0.0216   0.0600   0.0099   0.0109  -0.0045   0.00    0.0
2022/01/01 02:44:00.000  -19.018304021   47.229214227  1553.0139   6   8   0.0206   0.0214   0.0599   0.0100   0.0110  -0.0022   0.00    0.0
2022/01/01 02:44:30.000  -19.018304054   47.229214232  1553.0213   6   8   0.0205   0.0214   0.0597   0.0099   0.0113   0.0030   0.00    0.0
2022/01/01 02:45:00.000  -19.018304054   47.229214202  1553.0198   6   8   0.0212   0.0222   0.0616   0.0101   0.0121   0.0055   0.00    0.0
2022/01/01 02:45:30.000  -19.018304043   47.229214188  1553.0135   6   8   0.0205   0.0214   0.0591   0.0100   0.0117   0.0062   0.00    0.0
2022/01/01 02:46:00.000  -19.018304026   47.229214173  1553.0079   6   8   0.0204   0.0215   0.0591   0.0098   0.0117   0.0071   0.00    0.0
2022/01/01 02:46:30.000  -19.018304035   47.229214191  1553.0103   6   8   0.0204   0.0213   0.0591   0.0101   0.0120   0.0078   0.00    0.0
2022/01/01 02:47:00.000  -19.018304064   47.229214189  1553.0158   6   8   0.0203   0.0214   0.0590   0.0100   0.0122   0.0088   0.00    0.0
2022/01/01 02:47:30.000  -19.018304076   47.229214219  1553.0224   6   8   0.0203   0.0214   0.0591   0.0100   0.0122   0.0094   0.00    0.0
2022/01/01 02:48:00.000  -19.018304066   47.229214179  1553.0112   6   8   0.0203   0.0213   0.0591   0.0101   0.0124   0.0101   0.00    0.0
2022/01/01 02:48:30.000  -19.018304067   47.229214145  1553.0061   6   8   0.0203   0.0211   0.0591   0.0101   0.0127   0.0106   0.00    0.0
2022/01/01 02:49:00.000  -19.018304054   47.229214135  1553.0057   6   8   0.0203   0.0212   0.0591   0.0101   0.0127   0.0112   0.00    0.0
2022/01/01 02:49:30.000  -19.018304031   47.229214138  1552.9989   6   8   0.0202   0.0212   0.0591   0.0102   0.0129   0.0116   0.00    0.0
2022/01/01 02:50:00.000  -19.018304006   47.229214175  1553.0071   6   8   0.0208   0.0216   0.0608   0.0105   0.0137   0.0127   0.00    0.0
2022/01/01 02:50:30.000  -19.018304008   47.229214206  1553.0128   6   8   0.0201   0.0211   0.0592   0.0103   0.0131   0.0127   0.00    0.0
2022/01/01 02:51:00.000  -19.018304015   47.229214219  1553.0024   6   8   0.0202   0.0212   0.0592   0.0103   0.0134   0.0132   0.00    0.0
2022/01/01 02:51:30.000  -19.018304007   47.229214154  1553.0060   6   8   0.0202   0.0211   0.0593   0.0102   0.0136   0.0136   0.00    0.0
2022/01/01 02:52:00.000  -19.018303996   47.229214138  1553.0038   6   8   0.0202   0.0211   0.0595   0.0106   0.0135   0.0139   0.00    0.0
2022/01/01 02:52:30.000  -19.018304038   47.229214211  1553.0186   6   8   0.0201   0.0211   0.0596   0.0101   0.0139   0.0144   0.00    0.0
2022/01/01 02:53:00.000  -19.018304019   47.229214205  1553.0070   6   8   0.0201   0.0210   0.0596   0.0103   0.0141   0.0148   0.00    0.0
2022/01/01 02:53:30.000  -19.018304024   47.229214185  1553.0049   6   8   0.0201   0.0211   0.0597   0.0103   0.0142   0.0152   0.00    0.0
2022/01/01 02:54:00.000  -19.018304018   47.229214198  1553.0139   6   8   0.0202   0.0210   0.0598   0.0104   0.0144   0.0156   0.00    0.0
2022/01/01 02:54:30.000  -19.018304041   47.229214203  1553.0191   6   8   0.0201   0.0210   0.0599   0.0104   0.0147   0.0159   0.00    0.0
2022/01/01 02:55:00.000  -19.018304070   47.229214158  1553.0140   6   8   0.0207   0.0215   0.0615   0.0110   0.0152   0.0169   0.00    0.0
2022/01/01 02:55:30.000  -19.018304069   47.229214174  1553.0140   6   8   0.0202   0.0209   0.0603   0.0103   0.0151   0.0166   0.00    0.0
2022/01/01 02:56:00.000  -19.018304046   47.229214218  1553.0257   6   8   0.0201   0.0210   0.0605   0.0104   0.0151   0.0171   0.00    0.0
2022/01/01 02:56:30.000  -19.018304060   47.229214213  1553.0216   6   8   0.0202   0.0210   0.0607   0.0107   0.0151   0.0172   0.00    0.0
2022/01/01 02:57:00.000  -19.018304090   47.229214157  1553.0201   6   8   0.0203   0.0210   0.0608   0.0106   0.0154   0.0177   0.00    0.0
2022/01/01 02:57:30.000  -19.018304057   47.229214155  1553.0173   6   8   0.0202   0.0210   0.0609   0.0106   0.0156   0.0181   0.00    0.0
2022/01/01 02:58:00.000  -19.018304032   47.229214188  1553.0432   6   8   0.0203   0.0209   0.0612   0.0109   0.0157   0.0184   0.00    0.0
2022/01/01 02:58:30.000  -19.018304065   47.229214203  1553.0418   6   8   0.0203   0.0210   0.0613   0.0107   0.0160   0.0188   0.00    0.0
2022/01/01 02:59:00.000  -19.018304067   47.229214206  1553.0342   6   8   0.0203   0.0210   0.0615   0.0108   0.0161   0.0191   0.00    0.0
2022/01/01 02:59:30.000  -19.018304065   47.229214196  1553.0287   6   8   0.0203   0.0209   0.0617   0.0110   0.0164   0.0195   0.00    0.0
2022/01/01 03:00:00.000  -19.018304049   47.229214180  1553.0263   6   8   0.0210   0.0215   0.0639   0.0111   0.0171   0.0204   0.00    0.0
2022/01/01 03:00:30.000  -19.018304066   47.229214145  1553.0170   6   8   0.0203   0.0207   0.0621   0.0111   0.0167   0.0201   0.00    0.0
2022/01/01 03:01:00.000  -19.018304078   47.229214117  1553.0021   6   8   0.0204   0.0208   0.0624   0.0111   0.0167   0.0204   0.00    0.0
2022/01/01 03:01:30.000  -19.018304098   47.229214067  1552.9908   6   8   0.0204   0.0208   0.0626   0.0111   0.0169   0.0208   0.00    0.0
2022/01/01 03:02:00.000  -19.018304058   47.229214099  1553.0022   6   8   0.0204   0.0208   0.0630   0.0110   0.0171   0.0210   0.00    0.0
2022/01/01 03:02:30.000  -19.018304022   47.229214122  1553.0056   6   8   0.0205   0.0209   0.0632   0.0112   0.0174   0.0214   0.00    0.0
2022/01/01 03:03:00.000  -19.018304046   47.229214128  1553.0084   6   8   0.0205   0.0208   0.0636   0.0111   0.0176   0.0218   0.00    0.0
2022/01/01 03:03:30.000  -19.018304042   47.229214145  1553.0088   6   8   0.0206   0.0208   0.0639   0.0113   0.0178   0.0222   0.00    0.0
2022/01/01 03:04:00.000  -19.018304005   47.229214199  1553.0244   6   8   0.0207   0.0209   0.0642   0.0113   0.0180   0.0224   0.00    0.0
2022/01/01 03:04:30.000  -19.018304021   47.229214198  1553.0249   6   8   0.0207   0.0209   0.0644   0.0115   0.0180   0.0229   0.00    0.0
2022/01/01 03:05:00.000  -19.018303976   47.229214192  1553.0306   6   8   0.0215   0.0215   0.0667   0.0118   0.0190   0.0238   0.00    0.0
2022/01/01 03:05:30.000  -19.018304043   47.229214171  1553.0187   6   8   0.0208   0.0209   0.0650   0.0115   0.0185   0.0236   0.00    0.0
2022/01/01 03:06:00.000  -19.018304028   47.229214167  1553.0147   6   8   0.0209   0.0209   0.0654   0.0117   0.0185   0.0239   0.00    0.0
2022/01/01 03:06:30.000  -19.018304027   47.229214069  1552.9906   6   9   0.0209   0.0209   0.0657   0.0118   0.0188   0.0242   0.00    0.0
2022/01/01 03:07:00.000  -19.018304048   47.229214065  1552.9966   6   9   0.0205   0.0205   0.0627   0.0109   0.0167   0.0225   0.00    0.0
2022/01/01 03:07:30.000  -19.018304012   47.229214074  1553.0046   6   9   0.0203   0.0202   0.0619   0.0107   0.0161   0.0221   0.00    0.0
2022/01/01 03:08:00.000  -19.018304030   47.229214077  1553.0086   6   9   0.0202   0.0203   0.0615   0.0106   0.0156   0.0220   0.00    0.0
2022/01/01 03:08:30.000  -19.018304050   47.229214095  1553.0168   6   9   0.0202   0.0203   0.0615   0.0104   0.0154   0.0220   0.00    0.0
2022/01/01 03:09:00.000  -19.018304102   47.229214120  1553.0060   6   9   0.0202   0.0202   0.0615   0.0107   0.0153   0.0223   0.00    0.0
2022/01/01 03:09:30.000  -19.018304118   47.229214145  1553.0123   6   9   0.0203   0.0201   0.0616   0.0106   0.0156   0.0223   0.00    0.0
2022/01/01 03:10:00.000  -19.018304142   47.229214187  1553.0129   6   9   0.0208   0.0205   0.0627   0.0106   0.0156   0.0228   0.00    0.0
2022/01/01 03:10:30.000  -19.018304211   47.229214200  1552.9988   6   8   0.0215   0.0202   0.0662   0.0098   0.0141   0.0260   0.00    0.0
2022/01/01 03:11:00.000  -19.018304190   47.229214145  1553.0026   6   8   0.0214   0.0202   0.0663   0.0099   0.0142   0.0262   0.00    0.0
2022/01/01 03:11:30.000  -19.018304224   47.229214130  1552.9978   6   8   0.0214   0.0201   0.0663   0.0100   0.0143   0.0264   0.00    0.0
2022/01/01 03:12:00.000  -19.018304070   47.229214212  1553.0634   6   7   0.0242   0.0211   0.0799   0.0128   0.0219   0.0345   0.00    0.0
2022/01/01 03:12:30.000  -19.018304058   47.229214134  1553.0493   6   7   0.0242   0.0211   0.0802   0.0132   0.0222   0.0348   0.00    0.0
2022/01/01 03:13:00.000  -19.018304070   47.229214083  1553.0282   6   7   0.0244   0.0211   0.0810   0.0132   0.0227   0.0352   0.00    0.0
2022/01/01 03:13:30.000  -19.018304094   47.229214048  1553.0155   6   7   0.0245   0.0212   0.0815   0.0134   0.0228   0.0356   0.00    0.0
2022/01/01 03:14:00.000  -19.018304112   47.229213986  1552.9852   6   7   0.0248   0.0212   0.0824   0.0135   0.0233   0.0361   0.00    0.0
2022/01/01 03:14:30.000  -19.018304106   47.229213986  1552.9937   6   7   0.0248   0.0212   0.0827   0.0137   0.0237   0.0365   0.00    0.0
2022/01/01 03:15:00.000  -19.018304150   47.229214020  1552.9730   6   7   0.0258   0.0218   0.0866   0.0141   0.0245   0.0383   0.00    0.0
2022/01/01 03:15:30.000  -19.018304094   47.229214116  1552.9851   6   7   0.0251   0.0212   0.0837   0.0141   0.0243   0.0372   0.00    0.0
2022/01/01 03:16:00.000  -19.018304047   47.229214148  1553.0180   6   7   0.0252   0.0213   0.0842   0.0140   0.0246   0.0376   0.00    0.0
2022/01/01 03:16:30.000  -19.018304039   47.229214180  1553.0340   6   7   0.0253   0.0215   0.0847   0.0142   0.0248   0.0380   0.00    0.0
2022/01/01 03:17:00.000  -19.018304028   47.229214239  1553.0453   6   7   0.0255   0.0214   0.0856   0.0144   0.0252   0.0385   0.00    0.0
2022/01/01 03:17:30.000  -19.018303987   47.229214209  1553.0708   6   7   0.0256   0.0214   0.0860   0.0146   0.0255   0.0389   0.00    0.0
2022/01/01 03:18:00.000  -19.018304006   47.229214174  1553.0602   6   7   0.0258   0.0214   0.0868   0.0148   0.0258   0.0393   0.00    0.0
2022/01/01 03:18:30.000  -19.018304016   47.229214170  1553.0517   6   7   0.0260   0.0215   0.0875   0.0150   0.0262   0.0399   0.00    0.0
2022/01/01 03:19:00.000  -19.018303995   47.229214180  1553.0600   6   7   0.0261   0.0215   0.0882   0.0150   0.0265   0.0402   0.00    0.0
2022/01/01 03:19:30.000  -19.018303997   47.229214146  1553.0500   6   7   0.0264   0.0216   0.0890   0.0153   0.0268   0.0407   0.00    0.0
2022/01/01 03:20:00.000  -19.018303987   47.229214182  1553.0624   6   7   0.0273   0.0222   0.0932   0.0157   0.0280   0.0427   0.00    0.0
2022/01/01 03:20:30.000  -19.018303980   47.229214207  1553.0570   6   7   0.0268   0.0218   0.0907   0.0156   0.0276   0.0417   0.00    0.0
2022/01/01 03:21:00.000  -19.018303984   47.229214185  1553.0540   6   7   0.0269   0.0217   0.0914   0.0159   0.0280   0.0422   0.00    0.0
2022/01/01 03:21:30.000  -19.018303961   47.229214187  1553.0592   6   8   0.0271   0.0218   0.0920   0.0159   0.0283   0.0426   0.00    0.0
2022/01/01 03:22:00.000  -19.018303984   47.229214167  1553.0431   6   8   0.0251   0.0211   0.0827   0.0140   0.0239   0.0374   0.00    0.0
2022/01/01 03:22:30.000  -19.018303990   47.229214176  1553.0448   6   8   0.0244   0.0209   0.0796   0.0133   0.0223   0.0358   0.00    0.0
2022/01/01 03:23:00.000  -19.018303981   47.229214144  1553.0446   6   8   0.0241   0.0207   0.0781   0.0130   0.0215   0.0350   0.00    0.0
2022/01/01 03:23:30.000  -19.018303916   47.229214174  1553.0653   6   8   0.0240   0.0206   0.0773   0.0130   0.0210   0.0346   0.00    0.0
2022/01/01 03:24:00.000  -19.018303956   47.229214156  1553.0595   6   8   0.0239   0.0205   0.0769   0.0129   0.0208   0.0344   0.00    0.0
2022/01/01 03:24:30.000  -19.018303984   47.229214149  1553.0485   6   8   0.0238   0.0204   0.0766   0.0128   0.0208   0.0342   0.00    0.0
2022/01/01 03:25:00.000  -19.018303966   47.229214167  1553.0585   6   8   0.0243   0.0209   0.0784   0.0129   0.0204   0.0348   0.00    0.0
2022/01/01 03:25:30.000  -19.018303923   47.229214057  1553.0480   6   8   0.0239   0.0204   0.0766   0.0127   0.0206   0.0343   0.00    0.0
2022/01/01 03:26:00.000  -19.018303955   47.229214032  1553.0346   6   8   0.0239   0.0205   0.0765   0.0127   0.0205   0.0343   0.00    0.0
2022/01/01 03:26:30.000  -19.018304021   47.229213989  1553.0144   6   8   0.0238   0.0203   0.0765   0.0129   0.0206   0.0344   0.00    0.0
2022/01/01 03:27:00.000  -19.018304028   47.229214026  1553.0159   6   8   0.0238   0.0204   0.0767   0.0128   0.0205   0.0344   0.00    0.0
2022/01/01 03:27:30.000  -19.018304008   47.229214017  1553.0151   6   8   0.0239   0.0204   0.0768   0.0128   0.0205   0.0347   0.00    0.0
2022/01/01 03:28:00.000  -19.018304006   47.229214064  1553.0326   6   8   0.0240   0.0204   0.0769   0.0128   0.0206   0.0347   0.00    0.0
2022/01/01 03:28:30.000  -19.018304044   47.229214063  1553.0150   6   8   0.0240   0.0204   0.0770   0.0131   0.0207   0.0347   0.00    0.0
2022/01/01 03:29:00.000  -19.018304074   47.229214071  1553.0137   6   8   0.0241   0.0203   0.0771   0.0130   0.0208   0.0348   0.00    0.0
