%====================NET Diff V1.14======================
% A software for GNSS Download, Positioning and Analysis.
%  Developed by Yize Zhang, zhyize@163.com
%  Tokyo University of Marine Science and Technology
%  Shanghai Astronomical Observatory
%(c) 2018~2021. TUMSAT & SHAO. All rights reserved.
%--------------------------------------------------------
%          day: 2021196
%     Station Fixed: 
%     base   -2409528.959    4703522.009    3559036.347     0.000     0.000     2.000     iRTK5                    HITRTK5         NONE
%  Station Estimated:
%     KVH0   -2410722.437    4702606.464    3559438.546     0.000     0.000     2.000     iRTK5                    HITRTK5         NONE
%  eopfile:         Input\EOP.txt
%  antfile:         Input\igs14_2178.atx
% tidefile:         Input\tide.txt
%glofrefile:        Input\GLOFre.txt
% p1c1file:         Input\P1C12102.DCB
%  dcbfile:         C:\Users\LZ\Desktop\IRTK\CAS0MGXRAP_20211960000_01D_01D_DCB.BSX
%  obstype:         RNX
%   obsdir:         C:\Users\LZ\Desktop\IRTK\
%   navdir:         C:\Users\LZ\Desktop\IRTK\
%interva(s):        1.0
%   limele:          10
%   limSNR:           0
% stomodel:         ELE1
%  maxpdop:          20
%trop_model:       GPT2_5w  SAAS VMF1
%   t_start:       2021  7 15  8 44 56.0 2166  377096
%    t_end:        2021  7 15 10 38 37.0 2166  383917
%freq_comb:        G:L1L2    E:E1E5a     
%combination:      Code 0.3  Phase 0.003
%systemused:        GPS  GALILEO    
% admethod:          KF
%  postype:       Forward
%pos_state:           K
% proc_mod:           5      (RTK)
%   dd_coe:         1.0  0.0  0.0  1.0
%  ar_mode:            Continuous
%   fixele:         20
%partial_ar:       Data based
%success_rate:     0.68
%conf_level:      0.900
%tightcombine         F
%est_amb_WL:          F
% est_iono:           F
%      isb:           T  RW  1.0
%      ifb:           T  LM
%cycleslip:       GF+MW               
%obscombine:        P1P2
%  iontype:           1
%   smooth:           N Hatch P1P2    0
%  posfile:           T
%   outdir:              C:\Users\LZ\Desktop\IRTK\
% (lat/lon/height=WGS84(CGCS2000)/ellipsoidal,Q=1:fix,2:float,ns=# of satellites)
%  GPST                  latitude(deg) longitude(deg)  height(m)    Q  ns     X(ECEF/m)      Y(ECEF/m)      Z(ECEF/m)     N BL/m      E BL/m      U BL/m
2021/07/15 08:44:57.000   34.136682681  117.125834464     32.9779   1   9   -2409581.363    4703503.990    3559024.264     -14.410      54.855      -0.278
2021/07/15 08:44:58.000   34.136682649  117.125834476     32.9758   1   9   -2409581.364    4703503.990    3559024.260     -14.413      54.857      -0.280
2021/07/15 08:44:59.000   34.136682668  117.125834473     32.9800   1   9   -2409581.365    4703503.992    3559024.264     -14.411      54.856      -0.276
2021/07/15 08:45:00.000   34.136682653  117.125834465     32.9764   1   9   -2409581.363    4703503.990    3559024.261     -14.413      54.856      -0.279
2021/07/15 08:45:01.000   34.136682687  117.125834467     32.9795   1   9   -2409581.363    4703503.991    3559024.266     -14.409      54.856      -0.276
2021/07/15 08:45:02.000   34.136682653  117.125834462     32.9713   1   9   -2409581.361    4703503.987    3559024.258     -14.413      54.855      -0.285
2021/07/15 08:45:03.000   34.136682725  117.125834454     32.9842   1   9   -2409581.363    4703503.992    3559024.272     -14.405      54.855      -0.272
2021/07/15 08:45:04.000   34.136682682  117.125834505     32.9793   1   9   -2409581.367    4703503.989    3559024.265     -14.409      54.859      -0.277
2021/07/15 08:45:05.000   34.136682679  117.125834482     32.9827   1   9   -2409581.366    4703503.993    3559024.267     -14.410      54.857      -0.273
2021/07/15 08:45:06.000   34.136682672  117.125834467     32.9757   1   9   -2409581.362    4703503.989    3559024.262     -14.411      54.856      -0.280
2021/07/15 08:45:07.000   34.136682647  117.125834505     32.9723   1   9   -2409581.365    4703503.986    3559024.258     -14.413      54.859      -0.284
2021/07/15 08:45:08.000   34.136682666  117.125834493     32.9778   1   9   -2409581.366    4703503.989    3559024.263     -14.411      54.858      -0.278
2021/07/15 08:45:09.000   34.136682659  117.125834487     32.9751   1   9   -2409581.364    4703503.988    3559024.261     -14.412      54.858      -0.281
2021/07/15 08:45:10.000   34.136682691  117.125834448     32.9755   1   9   -2409581.360    4703503.988    3559024.264     -14.408      54.854      -0.280
2021/07/15 08:45:11.000   34.136682696  117.125834449     32.9768   1   9   -2409581.361    4703503.989    3559024.265     -14.408      54.854      -0.279
2021/07/15 08:45:12.000   34.136682662  117.125834492     32.9737   1   9   -2409581.364    4703503.987    3559024.260     -14.412      54.858      -0.282
2021/07/15 08:45:13.000   34.136682718  117.125834472     32.9729   1   9   -2409581.360    4703503.984    3559024.265     -14.405      54.856      -0.283
2021/07/15 08:45:14.000   34.136682699  117.125834468     32.9807   1   9   -2409581.364    4703503.991    3559024.267     -14.408      54.856      -0.275
2021/07/15 08:45:15.000   34.136682627  117.125834530     32.9788   1   9   -2409581.370    4703503.991    3559024.260     -14.416      54.862      -0.277
2021/07/15 08:45:16.000   34.136682662  117.125834512     32.9856   1   9   -2409581.370    4703503.995    3559024.267     -14.412      54.860      -0.270
2021/07/15 08:45:17.000   34.136682678  117.125834508     32.9858   1   9   -2409581.369    4703503.994    3559024.268     -14.410      54.860      -0.270
2021/07/15 08:45:18.000   34.136682652  117.125834505     32.9871   1   9   -2409581.370    4703503.996    3559024.267     -14.413      54.859      -0.269
2021/07/15 08:45:19.000   34.136682648  117.125834506     32.9797   1   9   -2409581.368    4703503.991    3559024.262     -14.413      54.859      -0.276
2021/07/15 08:45:20.000   34.136682626  117.125834494     32.9811   1   9   -2409581.368    4703503.994    3559024.261     -14.416      54.858      -0.275
2021/07/15 08:45:21.000   34.136682631  117.125834525     32.9861   1   9   -2409581.372    4703503.996    3559024.264     -14.415      54.861      -0.270
2021/07/15 08:45:22.000   34.136682639  117.125834476     32.9853   1   9   -2409581.368    4703503.997    3559024.264     -14.414      54.857      -0.271
2021/07/15 08:45:23.000   34.136682613  117.125834508     32.9826   1   9   -2409581.370    4703503.995    3559024.261     -14.417      54.860      -0.273
2021/07/15 08:45:24.000   34.136682643  117.125834512     32.9873   1   9   -2409581.371    4703503.997    3559024.266     -14.414      54.860      -0.269
2021/07/15 08:45:25.000   34.136682630  117.125834506     32.9863   1   9   -2409581.371    4703503.997    3559024.264     -14.415      54.859      -0.270
2021/07/15 08:45:26.000   34.136682612  117.125834527     32.9842   1   9   -2409581.372    4703503.996    3559024.261     -14.417      54.861      -0.272
2021/07/15 08:45:27.000   34.136682647  117.125834505     32.9839   1   9   -2409581.369    4703503.994    3559024.264     -14.413      54.859      -0.272
2021/07/15 08:45:28.000   34.136682649  117.125834526     32.9934   1   9   -2409581.375    4703504.000    3559024.270     -14.413      54.861      -0.263
2021/07/15 08:45:29.000   34.136682590  117.125834494     32.9870   1   9   -2409581.371    4703504.000    3559024.261     -14.420      54.858      -0.269
2021/07/15 08:45:30.000   34.136682623  117.125834515     32.9825   1   9   -2409581.370    4703503.994    3559024.261     -14.416      54.860      -0.273
2021/07/15 08:45:31.000   34.136682648  117.125834529     32.9807   1   9   -2409581.370    4703503.991    3559024.263     -14.413      54.861      -0.275
2021/07/15 08:45:32.000   34.136682686  117.125834466     32.9820   1   9   -2409581.364    4703503.992    3559024.267     -14.409      54.856      -0.274
2021/07/15 08:45:33.000   34.136682620  117.125834509     32.9859   1   9   -2409581.371    4703503.997    3559024.263     -14.416      54.860      -0.270
2021/07/15 08:45:34.000   34.136682642  117.125834502     32.9873   1   9   -2409581.371    4703503.997    3559024.266     -14.414      54.859      -0.269
2021/07/15 08:45:35.000   34.136682618  117.125834494     32.9803   1   9   -2409581.368    4703503.994    3559024.260     -14.417      54.858      -0.276
2021/07/15 08:45:36.000   34.136682618  117.125834512     32.9826   1  10   -2409581.370    4703503.995    3559024.261     -14.417      54.860      -0.273
2021/07/15 08:45:37.000   34.136682661  117.125834523     32.9890   1  10   -2409581.372    4703503.997    3559024.268     -14.412      54.861      -0.267
2021/07/15 08:45:38.000   34.136682687  117.125834520     32.9883   1  10   -2409581.371    4703503.995    3559024.271     -14.409      54.861      -0.268
2021/07/15 08:45:39.000   34.136682655  117.125834529     32.9921   1  10   -2409581.374    4703503.999    3559024.270     -14.413      54.862      -0.264
2021/07/15 08:45:40.000   34.136682674  117.125834523     32.9922   1  10   -2409581.373    4703503.998    3559024.272     -14.410      54.861      -0.264
2021/07/15 08:45:41.000   34.136682661  117.125834540     32.9929   1  10   -2409581.375    4703503.999    3559024.271     -14.412      54.863      -0.263
2021/07/15 08:45:42.000   34.136682641  117.125834527     32.9938   1  10   -2409581.375    4703504.001    3559024.269     -14.414      54.861      -0.262
2021/07/15 08:45:43.000   34.136682637  117.125834515     32.9942   1  10   -2409581.374    4703504.002    3559024.269     -14.414      54.860      -0.262
2021/07/15 08:45:44.000   34.136682656  117.125834502     32.9931   1  10   -2409581.372    4703504.001    3559024.270     -14.412      54.859      -0.263
2021/07/15 08:45:45.000   34.136682649  117.125834543     32.9869   1  10   -2409581.374    4703503.995    3559024.266     -14.413      54.863      -0.269
2021/07/15 08:45:46.000   34.136682672  117.125834525     32.9908   1  10   -2409581.373    4703503.997    3559024.271     -14.411      54.861      -0.265
2021/07/15 08:45:47.000   34.136682684  117.125834497     32.9925   1  10   -2409581.371    4703503.999    3559024.273     -14.409      54.859      -0.263
2021/07/15 08:45:48.000   34.136682681  117.125834506     32.9892   1  10   -2409581.370    4703503.996    3559024.270     -14.410      54.859      -0.267
2021/07/15 08:45:49.000   34.136682664  117.125834522     32.9942   1  10   -2409581.374    4703504.000    3559024.272     -14.411      54.861      -0.262
2021/07/15 08:45:50.000   34.136682669  117.125834493     32.9951   1  10   -2409581.372    4703504.002    3559024.273     -14.411      54.858      -0.261
2021/07/15 08:45:51.000   34.136682660  117.125834542     32.9934   1  10   -2409581.376    4703503.999    3559024.271     -14.412      54.863      -0.262
2021/07/15 08:45:52.000   34.136682654  117.125834542     32.9914   1  10   -2409581.375    4703503.998    3559024.269     -14.413      54.863      -0.265
2021/07/15 08:45:53.000   34.136682671  117.125834536     32.9938   1  10   -2409581.375    4703503.999    3559024.272     -14.411      54.862      -0.262
2021/07/15 08:45:54.000   34.136682697  117.125834499     32.9953   1  10   -2409581.372    4703504.000    3559024.275     -14.408      54.859      -0.261
2021/07/15 08:45:55.000   34.136682669  117.125834511     32.9939   1  10   -2409581.373    4703504.000    3559024.272     -14.411      54.860      -0.262
2021/07/15 08:45:56.000   34.136682689  117.125834501     32.9889   1  10   -2409581.370    4703503.996    3559024.271     -14.409      54.859      -0.267
2021/07/15 08:45:57.000   34.136682697  117.125834508     32.9929   1  10   -2409581.372    4703503.998    3559024.274     -14.408      54.860      -0.263
2021/07/15 08:45:58.000   34.136682666  117.125834511     32.9982   1  10   -2409581.375    4703504.004    3559024.274     -14.411      54.860      -0.258
2021/07/15 08:45:59.000   34.136682688  117.125834509     32.9883   1  10   -2409581.370    4703503.995    3559024.271     -14.409      54.860      -0.268
2021/07/15 08:46:00.000   34.136682674  117.125834553     32.9984   1  10   -2409581.378    4703504.002    3559024.275     -14.410      54.864      -0.258
2021/07/15 08:46:01.000   34.136682677  117.125834518     32.9948   1  10   -2409581.374    4703504.000    3559024.273     -14.410      54.860      -0.261
2021/07/15 08:46:02.000   34.136682695  117.125834526     32.9935   1  10   -2409581.373    4703503.998    3559024.274     -14.408      54.861      -0.262
2021/07/15 08:46:03.000   34.136682687  117.125834496     32.9998   1  10   -2409581.374    4703504.004    3559024.277     -14.409      54.858      -0.256
2021/07/15 08:46:04.000   34.136682691  117.125834536     33.0012   1  10   -2409581.377    4703504.003    3559024.278     -14.409      54.862      -0.255
2021/07/15 08:46:05.000   34.136682659  117.125834516     32.9992   1  10   -2409581.376    4703504.005    3559024.274     -14.412      54.860      -0.257
2021/07/15 08:46:06.000   34.136682668  117.125834517     32.9982   1  10   -2409581.375    4703504.003    3559024.274     -14.411      54.860      -0.258
2021/07/15 08:46:07.000   34.136682674  117.125834506     32.9940   1  10   -2409581.372    4703504.000    3559024.273     -14.410      54.859      -0.262
2021/07/15 08:46:08.000   34.136682677  117.125834518     32.9936   1  10   -2409581.373    4703503.999    3559024.273     -14.410      54.860      -0.262
2021/07/15 08:46:09.000   34.136682685  117.125834513     32.9891   1  10   -2409581.371    4703503.996    3559024.271     -14.409      54.860      -0.267
2021/07/15 08:46:10.000   34.136682667  117.125834543     32.9929   1  10   -2409581.375    4703503.998    3559024.271     -14.411      54.863      -0.263
2021/07/15 08:46:11.000   34.136682687  117.125834511     32.9953   1  10   -2409581.373    4703504.000    3559024.275     -14.409      54.860      -0.261
2021/07/15 08:46:12.000   34.136682684  117.125834509     32.9984   1  10   -2409581.374    4703504.003    3559024.276     -14.409      54.860      -0.258
2021/07/15 08:46:13.000   34.136682685  117.125834542     32.9955   1  10   -2409581.376    4703503.999    3559024.274     -14.409      54.863      -0.260
2021/07/15 08:46:14.000   34.136682684  117.125834556     32.9994   1  10   -2409581.378    4703504.002    3559024.277     -14.409      54.864      -0.256
2021/07/15 08:46:15.000   34.136682709  117.125834556     32.9992   1  10   -2409581.378    4703504.000    3559024.279     -14.407      54.864      -0.257
2021/07/15 08:46:16.000   34.136682679  117.125834503     32.9955   1  10   -2409581.373    4703504.001    3559024.274     -14.410      54.859      -0.260
2021/07/15 08:46:17.000   34.136682690  117.125834556     32.9930   1  10   -2409581.376    4703503.997    3559024.273     -14.409      54.864      -0.263
2021/07/15 08:46:18.000   34.136682672  117.125834534     32.9993   1  10   -2409581.377    4703504.003    3559024.275     -14.411      54.862      -0.257
2021/07/15 08:46:19.000   34.136682698  117.125834514     32.9962   1  10   -2409581.373    4703504.000    3559024.276     -14.408      54.860      -0.260
2021/07/15 08:46:20.000   34.136682671  117.125834535     32.9900   1  10   -2409581.373    4703503.996    3559024.270     -14.411      54.862      -0.266
2021/07/15 08:46:21.000   34.136682712  117.125834534     32.9992   1  10   -2409581.376    4703504.001    3559024.279     -14.406      54.862      -0.257
2021/07/15 08:46:22.000   34.136682691  117.125834520     33.0037   1  10   -2409581.377    4703504.006    3559024.280     -14.408      54.861      -0.252
2021/07/15 08:46:23.000   34.136682695  117.125834563     32.9994   1  10   -2409581.379    4703504.001    3559024.277     -14.408      54.865      -0.256
2021/07/15 08:46:24.000   34.136682675  117.125834517     32.9974   1  10   -2409581.375    4703504.002    3559024.275     -14.410      54.860      -0.259
2021/07/15 08:46:25.000   34.136682671  117.125834535     33.0026   1  10   -2409581.378    4703504.006    3559024.277     -14.411      54.862      -0.253
2021/07/15 08:46:26.000   34.136682686  117.125834558     32.9969   1  10   -2409581.378    4703504.000    3559024.275     -14.409      54.864      -0.259
2021/07/15 08:46:27.000   34.136682672  117.125834553     32.9944   1  10   -2409581.377    4703503.999    3559024.273     -14.411      54.864      -0.262
2021/07/15 08:46:28.000   34.136682685  117.125834511     32.9992   1  10   -2409581.375    4703504.003    3559024.277     -14.409      54.860      -0.257
2021/07/15 08:46:29.000   34.136682683  117.125834528     33.0025   1  10   -2409581.377    4703504.005    3559024.278     -14.409      54.861      -0.253
2021/07/15 08:46:30.000   34.136682696  117.125834519     32.9987   1  10   -2409581.375    4703504.002    3559024.277     -14.408      54.861      -0.257
2021/07/15 08:46:31.000   34.136682667  117.125834529     32.9927   1  10   -2409581.374    4703503.999    3559024.271     -14.411      54.861      -0.263
2021/07/15 08:46:32.000   34.136682701  117.125834526     32.9989   1  10   -2409581.375    4703504.002    3559024.278     -14.407      54.861      -0.257
2021/07/15 08:46:33.000   34.136682640  117.125834552     32.9970   1  10   -2409581.378    4703504.002    3559024.271     -14.414      54.864      -0.259
2021/07/15 08:46:34.000   34.136682687  117.125834513     33.0019   1  10   -2409581.376    4703504.005    3559024.278     -14.409      54.860      -0.254
2021/07/15 08:46:35.000   34.136682696  117.125834511     33.0031   1  10   -2409581.376    4703504.006    3559024.280     -14.408      54.860      -0.253
2021/07/15 08:46:36.000   34.136682686  117.125834488     32.9945   1  10   -2409581.371    4703504.001    3559024.274     -14.409      54.858      -0.261
2021/07/15 08:46:37.000   34.136682679  117.125834529     33.0041   1  10   -2409581.378    4703504.007    3559024.279     -14.410      54.861      -0.252
2021/07/15 08:46:38.000   34.136682672  117.125834525     32.9982   1  10   -2409581.376    4703504.003    3559024.275     -14.411      54.861      -0.258
2021/07/15 08:46:39.000   34.136682673  117.125834553     32.9994   1  10   -2409581.378    4703504.002    3559024.275     -14.411      54.864      -0.257
2021/07/15 08:46:40.000   34.136682671  117.125834521     33.0019   1  10   -2409581.377    4703504.006    3559024.277     -14.411      54.861      -0.254
2021/07/15 08:46:41.000   34.136682668  117.125834536     33.0035   1  10   -2409581.379    4703504.006    3559024.277     -14.411      54.862      -0.252
2021/07/15 08:46:42.000   34.136682687  117.125834522     32.9978   1  10   -2409581.375    4703504.002    3559024.276     -14.409      54.861      -0.258
2021/07/15 08:46:43.000   34.136682684  117.125834533     32.9966   1  10   -2409581.375    4703504.001    3559024.275     -14.409      54.862      -0.259
2021/07/15 08:46:44.000   34.136682674  117.125834530     32.9945   1  10   -2409581.375    4703504.000    3559024.273     -14.410      54.862      -0.261
2021/07/15 08:46:45.000   34.136682676  117.125834532     33.0000   1  10   -2409581.377    4703504.004    3559024.276     -14.410      54.862      -0.256
2021/07/15 08:46:46.000   34.136682682  117.125834556     32.9984   1  10   -2409581.378    4703504.001    3559024.276     -14.409      54.864      -0.258
2021/07/15 08:46:47.000   34.136682710  117.125834516     32.9921   1  10   -2409581.372    4703503.997    3559024.275     -14.406      54.860      -0.264
2021/07/15 08:46:48.000   34.136682696  117.125834515     32.9949   1  10   -2409581.373    4703503.999    3559024.275     -14.408      54.860      -0.261
2021/07/15 08:46:49.000   34.136682705  117.125834535     32.9963   1  10   -2409581.375    4703503.999    3559024.277     -14.407      54.862      -0.260
2021/07/15 08:46:50.000   34.136682705  117.125834525     33.0038   1  10   -2409581.377    4703504.005    3559024.281     -14.407      54.861      -0.252
2021/07/15 08:46:51.000   34.136682691  117.125834519     33.0053   1  10   -2409581.377    4703504.007    3559024.280     -14.408      54.861      -0.251
2021/07/15 08:46:52.000   34.136682678  117.125834521     33.0000   1  10   -2409581.376    4703504.004    3559024.276     -14.410      54.861      -0.256
2021/07/15 08:46:53.000   34.136682669  117.125834531     32.9979   1  10   -2409581.376    4703504.002    3559024.274     -14.411      54.862      -0.258
2021/07/15 08:46:54.000   34.136682677  117.125834521     33.0003   1  10   -2409581.376    4703504.004    3559024.276     -14.410      54.861      -0.256
2021/07/15 08:46:55.000   34.136682680  117.125834518     33.0023   1  10   -2409581.376    4703504.006    3559024.278     -14.410      54.860      -0.254
2021/07/15 08:46:56.000   34.136682678  117.125834508     32.9997   1  10   -2409581.375    4703504.004    3559024.276     -14.410      54.860      -0.256
2021/07/15 08:46:57.000   34.136682671  117.125834534     33.0055   1  10   -2409581.379    4703504.008    3559024.279     -14.411      54.862      -0.250
2021/07/15 08:46:58.000   34.136682696  117.125834503     32.9941   1  10   -2409581.372    4703503.999    3559024.275     -14.408      54.859      -0.262
2021/07/15 08:46:59.000   34.136682696  117.125834520     32.9954   1  10   -2409581.374    4703504.000    3559024.275     -14.408      54.861      -0.260
2021/07/15 08:47:00.000   34.136682671  117.125834535     32.9948   1  10   -2409581.375    4703504.000    3559024.273     -14.411      54.862      -0.261
2021/07/15 08:47:01.000   34.136682685  117.125834512     32.9977   1  10   -2409581.374    4703504.002    3559024.276     -14.409      54.860      -0.258
2021/07/15 08:47:02.000   34.136682665  117.125834515     32.9974   1  10   -2409581.375    4703504.003    3559024.274     -14.411      54.860      -0.259
2021/07/15 08:47:03.000   34.136682662  117.125834505     32.9952   1  10   -2409581.373    4703504.002    3559024.272     -14.412      54.859      -0.261
2021/07/15 08:47:04.000   34.136682677  117.125834500     32.9937   1  10   -2409581.372    4703504.000    3559024.273     -14.410      54.859      -0.262
2021/07/15 08:47:05.000   34.136682701  117.125834522     32.9972   1  10   -2409581.374    4703504.001    3559024.277     -14.407      54.861      -0.259
2021/07/15 08:47:06.000   34.136682696  117.125834488     32.9959   1  10   -2409581.371    4703504.001    3559024.276     -14.408      54.858      -0.260
2021/07/15 08:47:07.000   34.136682681  117.125834506     32.9941   1  10   -2409581.372    4703504.000    3559024.273     -14.410      54.859      -0.262
2021/07/15 08:47:08.000   34.136682689  117.125834506     32.9903   1  10   -2409581.371    4703503.997    3559024.272     -14.409      54.859      -0.266
2021/07/15 08:47:09.000   34.136682692  117.125834524     32.9934   1  10   -2409581.373    4703503.998    3559024.274     -14.408      54.861      -0.262
2021/07/15 08:47:10.000   34.136682666  117.125834547     32.9965   1  10   -2409581.377    4703504.001    3559024.273     -14.411      54.863      -0.259
2021/07/15 08:47:11.000   34.136682686  117.125834509     32.9935   1  10   -2409581.372    4703503.999    3559024.273     -14.409      54.860      -0.262
2021/07/15 08:47:12.000   34.136682656  117.125834504     32.9977   1  10   -2409581.374    4703504.004    3559024.273     -14.412      54.859      -0.258
2021/07/15 08:47:13.000   34.136682661  117.125834473     32.9930   1  10   -2409581.370    4703504.002    3559024.271     -14.412      54.856      -0.263
2021/07/15 08:47:14.000   34.136682693  117.125834500     32.9892   1  10   -2409581.370    4703503.996    3559024.272     -14.408      54.859      -0.267
2021/07/15 08:47:15.000   34.136682716  117.125834475     32.9772   1  10   -2409581.362    4703503.987    3559024.267     -14.406      54.857      -0.279
2021/07/15 08:47:16.000   34.136682688  117.125834474     32.9850   1  10   -2409581.366    4703503.994    3559024.269     -14.409      54.856      -0.271
2021/07/15 08:47:17.000   34.136682700  117.125834494     32.9809   1  10   -2409581.366    4703503.990    3559024.268     -14.408      54.858      -0.275
2021/07/15 08:47:18.000   34.136682679  117.125834493     32.9825   1  10   -2409581.367    4703503.992    3559024.267     -14.410      54.858      -0.273
2021/07/15 08:47:19.000   34.136682773  117.125834521     32.9637   1  10   -2409581.359    4703503.972    3559024.265     -14.399      54.861      -0.292
2021/07/15 08:47:20.000   34.136682773  117.125834538     32.9780   1  10   -2409581.366    4703503.982    3559024.273     -14.399      54.862      -0.278
2021/07/15 08:47:21.000   34.136682678  117.125834517     32.9749   1  10   -2409581.366    4703503.986    3559024.262     -14.410      54.860      -0.281
2021/07/15 08:47:22.000   34.136682732  117.125834485     32.9721   1  10   -2409581.361    4703503.982    3559024.266     -14.404      54.857      -0.284
2021/07/15 08:47:23.000   34.136682724  117.125834501     32.9755   1  10   -2409581.364    4703503.984    3559024.267     -14.405      54.859      -0.280
2021/07/15 08:47:24.000   34.136682736  117.125834467     32.9743   1  10   -2409581.360    4703503.984    3559024.267     -14.403      54.856      -0.282
2021/07/15 08:47:25.000   34.136682732  117.125834483     32.9737   1  10   -2409581.361    4703503.983    3559024.266     -14.404      54.857      -0.282
2021/07/15 08:47:26.000   34.136682692  117.125834502     32.9776   1  10   -2409581.366    4703503.987    3559024.265     -14.408      54.859      -0.278
2021/07/15 08:47:27.000   34.136682740  117.125834523     32.9727   1  10   -2409581.364    4703503.980    3559024.267     -14.403      54.861      -0.283
2021/07/15 08:47:28.000   34.136682723  117.125834480     32.9781   1  10   -2409581.363    4703503.987    3559024.268     -14.405      54.857      -0.278
2021/07/15 08:47:29.000   34.136682723  117.125834499     32.9761   1  10   -2409581.364    4703503.985    3559024.267     -14.405      54.859      -0.280
2021/07/15 08:47:30.000   34.136682750  117.125834497     32.9788   1  10   -2409581.364    4703503.985    3559024.271     -14.402      54.859      -0.277
2021/07/15 08:47:31.000   34.136682710  117.125834552     32.9830   1  10   -2409581.371    4703503.988    3559024.270     -14.406      54.864      -0.273
2021/07/15 08:47:32.000   34.136682750  117.125834480     32.9767   1  10   -2409581.362    4703503.984    3559024.270     -14.402      54.857      -0.279
2021/07/15 08:47:33.000   34.136682733  117.125834499     32.9786   1  10   -2409581.364    4703503.986    3559024.269     -14.404      54.859      -0.277
2021/07/15 08:47:34.000   34.136682724  117.125834504     32.9771   1  10   -2409581.365    4703503.985    3559024.268     -14.405      54.859      -0.279
2021/07/15 08:47:35.000   34.136682722  117.125834499     32.9805   1  10   -2409581.365    4703503.988    3559024.269     -14.405      54.859      -0.275
2021/07/15 08:47:36.000   34.136682709  117.125834505     32.9739   1  10   -2409581.364    4703503.984    3559024.265     -14.406      54.859      -0.282
2021/07/15 08:47:37.000   34.136682700  117.125834517     32.9776   1  10   -2409581.366    4703503.986    3559024.266     -14.407      54.860      -0.278
2021/07/15 08:47:38.000   34.136682737  117.125834459     32.9799   1  10   -2409581.362    4703503.988    3559024.270     -14.403      54.855      -0.276
2021/07/15 08:47:39.000   34.136682730  117.125834454     32.9752   1  10   -2409581.360    4703503.986    3559024.267     -14.404      54.855      -0.281
2021/07/15 08:47:40.000   34.136682732  117.125834500     32.9775   1  10   -2409581.364    4703503.985    3559024.269     -14.404      54.859      -0.278
2021/07/15 08:47:41.000   34.136682739  117.125834481     32.9801   1  10   -2409581.363    4703503.987    3559024.271     -14.403      54.857      -0.276
2021/07/15 08:47:42.000   34.136682724  117.125834474     32.9782   1  10   -2409581.362    4703503.987    3559024.268     -14.405      54.856      -0.278
2021/07/15 08:47:43.000   34.136682710  117.125834479     32.9687   1  10   -2409581.360    4703503.981    3559024.262     -14.406      54.857      -0.287
2021/07/15 08:47:44.000   34.136682748  117.125834619     32.9701   1  10   -2409581.371    4703503.974    3559024.266     -14.402      54.870      -0.286
2021/07/15 08:47:45.000   34.136683123  117.125837795     32.9644   1   9   -2409581.619    4703503.815    3559024.297     -14.361      55.163      -0.291
2021/07/15 08:47:46.000   34.136684485  117.125845450     32.9694   1  10   -2409582.210    4703503.422    3559024.425     -14.209      55.869      -0.286
2021/07/15 08:47:47.000   34.136687242  117.125855493     32.9596   1  10   -2409582.953    4703502.839    3559024.673     -13.904      56.795      -0.296
2021/07/15 08:47:48.000   34.136692758  117.125870753     32.9842   1  10   -2409584.058    4703501.910    3559025.193     -13.292      58.203      -0.272
2021/07/15 08:47:49.000   34.136700820  117.125895561     33.0296   1  10   -2409585.883    4703500.454    3559025.959     -12.397      60.491      -0.226
2021/07/15 08:47:50.000   34.136708943  117.125932096     33.0587   1  10   -2409588.663    4703498.489    3559026.721     -11.496      63.861      -0.197
2021/07/15 08:47:51.000   34.136714848  117.125980918     33.0850   1  10   -2409592.513    4703496.128    3559027.278     -10.841      68.364      -0.171
2021/07/15 08:47:52.000   34.136720171  117.126041175     33.1362   1  10   -2409597.328    4703493.336    3559027.795     -10.251      73.922      -0.120
2021/07/15 08:47:53.000   34.136720708  117.126110354     33.1996   1  10   -2409603.015    4703490.444    3559027.880     -10.191      80.303      -0.056
2021/07/15 08:47:54.000   34.136718440  117.126182710     33.2244   1  10   -2409609.029    4703487.545    3559027.686     -10.443      86.977      -0.031
2021/07/15 08:47:55.000   34.136714667  117.126252632     33.1861   1  10   -2409614.862    4703484.785    3559027.318     -10.862      93.426      -0.069
2021/07/15 08:47:56.000   34.136710605  117.126318776     33.1649   1  10   -2409620.399    4703482.213    3559026.933     -11.312      99.527      -0.090
2021/07/15 08:47:57.000   34.136707691  117.126385073     33.1541   1  10   -2409625.920    4703479.578    3559026.659     -11.636     105.642      -0.101
2021/07/15 08:47:58.000   34.136705030  117.126451464     33.1342   1  10   -2409631.438    4703476.919    3559026.404     -11.931     111.766      -0.121
2021/07/15 08:47:59.000   34.136701711  117.126517716     33.1272   1  10   -2409636.968    4703474.311    3559026.095     -12.299     117.877      -0.128
2021/07/15 08:48:00.000   34.136698117  117.126583983     33.1050   1  10   -2409642.502    4703471.707    3559025.753     -12.698     123.989      -0.150
2021/07/15 08:48:01.000   34.136694025  117.126652625     33.0669   1   9   -2409648.238    4703469.019    3559025.356     -13.152     130.320      -0.188
2021/07/15 08:48:02.000   34.136689529  117.126724042     33.0658   1   9   -2409654.228    4703466.263    3559024.942     -13.651     136.907      -0.189
2021/07/15 08:48:03.000   34.136685270  117.126794194     33.0612   1   9   -2409660.106    4703463.546    3559024.549     -14.123     143.378      -0.193
2021/07/15 08:48:04.000   34.136681260  117.126860390     33.0181   1   8   -2409665.638    4703460.952    3559024.156     -14.568     149.484      -0.236
2021/07/15 08:48:05.000   34.136677460  117.126922168     33.0044   1   8   -2409670.812    4703458.554    3559023.800     -14.990     155.182      -0.250
2021/07/15 08:48:06.000   34.136673649  117.126980828     32.9641   1   8   -2409675.720    4703456.269    3559023.427     -15.413     160.593      -0.290
2021/07/15 08:48:07.000   34.136669344  117.127045074     32.9349   1   8   -2409681.105    4703453.784    3559023.016     -15.890     166.518      -0.319
2021/07/15 08:48:08.000   34.136663840  117.127125283     32.9166   1   9   -2409687.839    4703450.702    3559022.500     -16.501     173.917      -0.337
2021/07/15 08:48:09.000   34.136657102  117.127221287     32.8883   1   9   -2409695.901    4703447.017    3559021.865     -17.249     182.772      -0.365
2021/07/15 08:48:10.000   34.136649768  117.127331051     32.8736   1  10   -2409705.114    4703442.796    3559021.184     -18.062     192.896      -0.380
2021/07/15 08:48:11.000   34.136641600  117.127457294     32.8183   1  10   -2409715.688    4703437.898    3559020.403     -18.969     204.540      -0.434
2021/07/15 08:48:12.000   34.136631869  117.127600480     32.7893   1  10   -2409727.708    4703432.394    3559019.493     -20.048     217.747      -0.463
2021/07/15 08:48:13.000   34.136623385  117.127738272     32.7435   1  10   -2409739.243    4703427.035    3559018.688     -20.990     230.457      -0.508
2021/07/15 08:48:14.000   34.136616717  117.127852253     32.7278   1  10   -2409748.783    4703422.599    3559018.067     -21.730     240.970      -0.524
2021/07/15 08:48:15.000   34.136611154  117.127938418     32.6914   1  10   -2409756.000    4703419.256    3559017.536     -22.347     248.918      -0.560
2021/07/15 08:48:16.000   34.136606302  117.128016040     32.6780   1  10   -2409762.505    4703416.250    3559017.083     -22.885     256.077      -0.573
2021/07/15 08:48:17.000   34.136602258  117.128094132     32.6523   1  10   -2409769.021    4703413.171    3559016.698     -23.334     263.280      -0.598
2021/07/15 08:48:18.000   34.136597917  117.128180956     32.6296   1   9   -2409776.263    4703409.743    3559016.286     -23.816     271.289      -0.621
2021/07/15 08:48:19.000   34.136593359  117.128278127     32.6000   1   9   -2409784.358    4703405.887    3559015.851     -24.322     280.251      -0.650
2021/07/15 08:48:20.000   34.136588733  117.128382630     32.5555   1   9   -2409793.051    4703401.715    3559015.402     -24.835     289.890      -0.694
2021/07/15 08:48:21.000   34.136584358  117.128492079     32.5315   1  10   -2409802.150    4703397.337    3559014.986     -25.321     299.986      -0.718
2021/07/15 08:48:22.000   34.136580297  117.128604687     32.4910   1  10   -2409811.494    4703392.796    3559014.591     -25.772     310.372      -0.758
2021/07/15 08:48:23.000   34.136575850  117.128718592     32.4727   1  10   -2409820.964    4703388.238    3559014.172     -26.265     320.878      -0.775
2021/07/15 08:48:24.000   34.136571128  117.128832312     32.4314   1  10   -2409830.418    4703383.686    3559013.715     -26.789     331.368      -0.816
2021/07/15 08:48:25.000   34.136566544  117.128944127     32.4304   1  10   -2409839.726    4703379.236    3559013.294     -27.298     341.681      -0.817
2021/07/15 08:48:26.000   34.136562250  117.129051341     32.4120   1  10   -2409848.642    4703374.951    3559012.889     -27.775     351.570      -0.834
2021/07/15 08:48:27.000   34.136558223  117.129153863     32.3500   1  10   -2409857.149    4703370.817    3559012.485     -28.222     361.027      -0.896
2021/07/15 08:48:28.000   34.136554663  117.129251678     32.2971   1  10   -2409865.260    4703366.861    3559012.128     -28.617     370.049      -0.948
2021/07/15 08:48:29.000   34.136551710  117.129345911     32.2814   1  10   -2409873.073    4703363.049    3559011.848     -28.945     378.740      -0.963
2021/07/15 08:48:30.000   34.136549680  117.129439304     32.2403   1  10   -2409880.782    4703359.203    3559011.639     -29.171     387.355      -1.004
2021/07/15 08:48:31.000   34.136548131  117.129531756     32.2117   1  10   -2409888.405    4703355.380    3559011.481     -29.343     395.882      -1.032
2021/07/15 08:48:32.000   34.136546822  117.129623414     32.1815   1  10   -2409895.954    4703351.575    3559011.344     -29.488     404.336      -1.062
2021/07/15 08:48:33.000   34.136545476  117.129714350     32.1492   1  10   -2409903.445    4703347.801    3559011.202     -29.638     412.724      -1.094
2021/07/15 08:48:34.000   34.136543455  117.129804717     32.1148   1  10   -2409910.908    4703344.086    3559010.997     -29.863     421.059      -1.127
2021/07/15 08:48:35.000   34.136541667  117.129894499     32.0946   1  10   -2409918.321    4703340.394    3559010.821     -30.061     429.340      -1.147
2021/07/15 08:48:36.000   34.136539900  117.129983566     32.0581   1  10   -2409925.669    4703336.719    3559010.639     -30.258     437.556      -1.183
2021/07/15 08:48:37.000   34.136538197  117.130072035     32.0443   1  10   -2409932.974    4703333.082    3559010.475     -30.447     445.716      -1.196
2021/07/15 08:48:38.000   34.136536553  117.130159847     32.0130   1  10   -2409940.217    4703329.456    3559010.306     -30.630     453.815      -1.227
2021/07/15 08:48:39.000   34.136534613  117.130248219     31.9794   1  10   -2409947.514    4703325.822    3559010.109     -30.845     461.967      -1.260
2021/07/15 08:48:40.000   34.136532486  117.130338657     31.9199   1  10   -2409954.976    4703322.092    3559009.881     -31.082     470.308      -1.319
2021/07/15 08:48:41.000   34.136530179  117.130432252     31.8990   1  10   -2409962.717    4703318.268    3559009.657     -31.338     478.941      -1.339
2021/07/15 08:48:42.000   34.136527747  117.130529074     31.8996   1  10   -2409970.734    4703314.330    3559009.434     -31.608     487.872      -1.338
2021/07/15 08:48:43.000   34.136525100  117.130629047     31.8586   1  10   -2409979.000    4703310.242    3559009.168     -31.902     497.093      -1.378
2021/07/15 08:48:44.000   34.136522620  117.130731636     31.8449   1  10   -2409987.487    4703306.054    3559008.933     -32.178     506.555      -1.391
2021/07/15 08:48:45.000   34.136520522  117.130836751     31.8116   1  10   -2409996.162    4703301.724    3559008.721     -32.411     516.251      -1.424
2021/07/15 08:48:46.000   34.136518676  117.130946194     31.7797   1  10   -2410005.187    4703297.200    3559008.534     -32.616     526.346      -1.455
2021/07/15 08:48:47.000   34.136516295  117.131062752     31.7656   1  10   -2410014.817    4703292.418    3559008.307     -32.881     537.097      -1.468
2021/07/15 08:48:48.000   34.136513398  117.131186346     31.7324   1  10   -2410025.032    4703287.356    3559008.023     -33.203     548.496      -1.500
2021/07/15 08:48:49.000   34.136509932  117.131316951     31.6873   1  10   -2410035.835    4703282.021    3559007.679     -33.588     560.543      -1.544
2021/07/15 08:48:50.000   34.136506357  117.131454413     31.6378   1  10   -2410047.201    4703276.400    3559007.323     -33.986     573.222      -1.593
2021/07/15 08:48:51.000   34.136502827  117.131593417     31.6283   1  10   -2410058.709    4703270.742    3559006.994     -34.378     586.043      -1.601
2021/07/15 08:48:52.000   34.136499626  117.131722407     31.5804   1  10   -2410069.370    4703265.458    3559006.673     -34.734     597.941      -1.648
2021/07/15 08:48:53.000   34.136495784  117.131837904     31.5381   1  10   -2410078.944    4703260.782    3559006.297     -35.161     608.594      -1.689
2021/07/15 08:48:54.000   34.136492408  117.131947993     31.5259   1  10   -2410088.072    4703256.329    3559005.980     -35.536     618.748      -1.700
2021/07/15 08:48:55.000   34.136490376  117.132056145     31.4720   1  10   -2410096.987    4703251.853    3559005.763     -35.762     628.724      -1.753
2021/07/15 08:48:56.000   34.136489152  117.132166310     31.4495   1  10   -2410106.057    4703247.270    3559005.638     -35.898     638.885      -1.775
2021/07/15 08:48:57.000   34.136487850  117.132280513     31.4141   1  10   -2410115.455    4703242.512    3559005.499     -36.043     649.419      -1.809
2021/07/15 08:48:58.000   34.136484838  117.132400868     31.3741   1  10   -2410125.405    4703237.587    3559005.200     -36.378     660.520      -1.848
2021/07/15 08:48:59.000   34.136480919  117.132527468     31.3365   1  10   -2410135.894    4703232.451    3559004.819     -36.814     672.197      -1.884
2021/07/15 08:49:00.000   34.136477304  117.132660444     31.2919   1  10   -2410146.895    4703227.025    3559004.462     -37.216     684.463      -1.928
2021/07/15 08:49:01.000   34.136475042  117.132794327     31.2558   1  10   -2410157.936    4703221.491    3559004.234     -37.468     696.812      -1.962
2021/07/15 08:49:02.000   34.136473784  117.132918850     31.2263   1  10   -2410168.182    4703216.301    3559004.102     -37.608     708.297      -1.991
2021/07/15 08:49:03.000   34.136472878  117.133026591     31.2011   1  10   -2410177.043    4703211.801    3559004.004     -37.709     718.235      -2.015
2021/07/15 08:49:04.000   34.136472030  117.133126404     31.1810   1  10   -2410185.252    4703207.634    3559003.915     -37.804     727.441      -2.034
2021/07/15 08:49:05.000   34.136470455  117.133227150     31.1583   1  10   -2410193.558    4703203.467    3559003.758     -37.979     736.734      -2.055
2021/07/15 08:49:06.000   34.136467124  117.133334850     31.1269   1  10   -2410202.482    4703199.098    3559003.434     -38.350     746.668      -2.086
2021/07/15 08:49:07.000   34.136463664  117.133447459     31.0983   1  10   -2410211.813    4703194.531    3559003.101     -38.734     757.055      -2.113
2021/07/15 08:49:08.000   34.136461050  117.133562784     31.1016   1  10   -2410221.355    4703189.827    3559002.863     -39.025     767.692      -2.108
2021/07/15 08:49:09.000   34.136459080  117.133679350     31.0615   1  10   -2410230.964    4703185.003    3559002.659     -39.245     778.443      -2.147
2021/07/15 08:49:10.000   34.136456973  117.133795856     31.0357   1  10   -2410240.578    4703180.200    3559002.451     -39.479     789.190      -2.172
2021/07/15 08:49:11.000   34.136453495  117.133914734     30.9984   1  10   -2410250.421    4703175.364    3559002.111     -39.866     800.154      -2.208
2021/07/15 08:49:12.000   34.136449171  117.134040515     30.9556   1  10   -2410260.852    4703170.281    3559001.690     -40.347     811.756      -2.249
2021/07/15 08:49:13.000   34.136445397  117.134168357     30.9195   1  10   -2410271.440    4703165.086    3559001.323     -40.766     823.548      -2.284
2021/07/15 08:49:14.000   34.136442973  117.134294218     30.8883   1  10   -2410281.828    4703159.902    3559001.083     -41.036     835.157      -2.313
2021/07/15 08:49:15.000   34.136441415  117.134417860     30.8433   1  10   -2410292.004    4703154.754    3559000.915     -41.210     846.561      -2.357
2021/07/15 08:49:16.000   34.136439882  117.134541744     30.8035   1  10   -2410302.202    4703149.598    3559000.752     -41.381     857.988      -2.395
2021/07/15 08:49:17.000   34.136437557  117.134665629     30.7773   1  10   -2410312.427    4703144.496    3559000.524     -41.640     869.415      -2.420
2021/07/15 08:49:18.000   34.136435012  117.134786879     30.7505   1  10   -2410322.442    4703139.517    3559000.275     -41.923     880.598      -2.445
2021/07/15 08:49:19.000   34.136432390  117.134903512     30.7066   1  10   -2410332.074    4703134.723    3559000.010     -42.216     891.356      -2.486
2021/07/15 08:49:20.000   34.136429754  117.135015433     30.6658   1  10   -2410341.320    4703130.131    3558999.745     -42.509     901.680      -2.526
2021/07/15 08:49:21.000   34.136427150  117.135122617     30.6283   1  10   -2410350.178    4703125.738    3558999.484     -42.799     911.566      -2.562
2021/07/15 08:49:22.000   34.136424640  117.135226602     30.6019   1  10   -2410358.775    4703121.483    3558999.239     -43.078     921.157      -2.587
2021/07/15 08:49:23.000   34.136422612  117.135329730     30.5565   1  10   -2410367.281    4703117.224    3558999.028     -43.304     930.669      -2.631
2021/07/15 08:49:24.000   34.136420556  117.135432158     30.5181   1  10   -2410375.733    4703113.000    3558998.817     -43.533     940.117      -2.668
2021/07/15 08:49:25.000   34.136418598  117.135533877     30.5062   1  10   -2410384.133    4703108.821    3558998.631     -43.751     949.499      -2.678
2021/07/15 08:49:26.000   34.136416769  117.135634564     30.4739   1  10   -2410392.438    4703104.663    3558998.445     -43.955     958.786      -2.709
2021/07/15 08:49:27.000   34.136414917  117.135734758     30.4376   1  10   -2410400.701    4703100.523    3558998.254     -44.162     968.028      -2.744
2021/07/15 08:49:28.000   34.136413128  117.135834689     30.3992   1  10   -2410408.940    4703096.390    3558998.069     -44.361     977.245      -2.781
2021/07/15 08:49:29.000   34.136411390  117.135935128     30.3725   1  10   -2410417.224    4703092.241    3558997.894     -44.555     986.509      -2.806
2021/07/15 08:49:30.000   34.136409433  117.136037902     30.3532   1  10   -2410425.709    4703088.012    3558997.703     -44.773     995.989      -2.824
2021/07/15 08:49:31.000   34.136407156  117.136142043     30.3208   1  10   -2410434.309    4703083.733    3558997.476     -45.026    1005.594      -2.855
2021/07/15 08:49:32.000   34.136404974  117.136245742     30.2834   1  10   -2410442.869    4703079.464    3558997.255     -45.269    1015.159      -2.891
2021/07/15 08:49:33.000   34.136402700  117.136349479     30.2528   1  10   -2410451.437    4703075.203    3558997.029     -45.523    1024.728      -2.920
2021/07/15 08:49:34.000   34.136400156  117.136453498     30.2300   1  10   -2410460.039    4703070.951    3558996.783     -45.806    1034.322      -2.941
2021/07/15 08:49:35.000   34.136397497  117.136558142     30.2085   1  10   -2410468.696    4703066.680    3558996.526     -46.102    1043.974      -2.961
2021/07/15 08:49:36.000   34.136394538  117.136663369     30.1752   1  10   -2410477.405    4703062.392    3558996.236     -46.431    1053.680      -2.993
2021/07/15 08:49:37.000   34.136391399  117.136769293     30.1378   1  10   -2410486.175    4703058.082    3558995.927     -46.781    1063.450      -3.029
2021/07/15 08:49:38.000   34.136387880  117.136876022     30.1151   1  10   -2410495.027    4703053.770    3558995.591     -47.172    1073.295      -3.050
2021/07/15 08:49:39.000   34.136384555  117.136984389     30.0874   1  10   -2410504.006    4703049.375    3558995.270     -47.542    1083.290      -3.076
2021/07/15 08:49:40.000   34.136381530  117.137094266     30.0728   1  10   -2410513.105    4703044.909    3558994.984     -47.879    1093.425      -3.089
2021/07/15 08:49:41.000   34.136378904  117.137205533     30.0265   1  10   -2410522.296    4703040.339    3558994.717     -48.171    1103.688      -3.133
2021/07/15 08:49:42.000   34.136376578  117.137318052     30.0006   1  10   -2410531.588    4703035.715    3558994.489     -48.431    1114.066      -3.157
2021/07/15 08:49:43.000   34.136374458  117.137431001     29.9553   1  10   -2410540.902    4703031.047    3558994.269     -48.667    1124.484      -3.201
2021/07/15 08:49:44.000   34.136372499  117.137543818     29.9263   1  10   -2410550.207    4703026.388    3558994.073     -48.886    1134.890      -3.228
2021/07/15 08:49:45.000   34.136370825  117.137656210     29.8986   1  10   -2410559.470    4703021.732    3558993.904     -49.072    1145.257      -3.254
2021/07/15 08:49:46.000   34.136369409  117.137768164     29.8769   1  10   -2410568.691    4703017.084    3558993.761     -49.231    1155.583      -3.274
2021/07/15 08:49:47.000   34.136367647  117.137879204     29.8395   1  10   -2410577.842    4703012.482    3558993.579     -49.428    1165.825      -3.309
2021/07/15 08:49:48.000   34.136365412  117.137987099     29.7918   1  10   -2410586.744    4703008.032    3558993.347     -49.677    1175.777      -3.355
2021/07/15 08:49:49.000   34.136363005  117.138090368     29.7616   1  10   -2410595.277    4703003.798    3558993.109     -49.945    1185.302      -3.383
2021/07/15 08:49:50.000   34.136360412  117.138190039     29.7358   1  10   -2410603.522    4702999.729    3558992.856     -50.234    1194.495      -3.407
2021/07/15 08:49:51.000   34.136358159  117.138290145     29.7042   1  10   -2410611.791    4702995.619    3558992.632     -50.485    1203.729      -3.437
2021/07/15 08:49:52.000   34.136356011  117.138391780     29.6969   1  10   -2410620.192    4702991.456    3558992.430     -50.724    1213.103      -3.443
2021/07/15 08:49:53.000   34.136353946  117.138494905     29.6635   1  10   -2410628.703    4702987.207    3558992.222     -50.954    1222.615      -3.474
2021/07/15 08:49:54.000   34.136351717  117.138599694     29.6414   1  10   -2410637.359    4702982.906    3558992.005     -51.203    1232.281      -3.495
2021/07/15 08:49:55.000   34.136349555  117.138705898     29.6055   1  10   -2410646.125    4702978.531    3558991.786     -51.444    1242.077      -3.529
2021/07/15 08:49:56.000   34.136347374  117.138813731     29.5688   1  10   -2410655.024    4702974.087    3558991.565     -51.687    1252.023      -3.563
2021/07/15 08:49:57.000   34.136344842  117.138923057     29.5196   1  10   -2410664.051    4702969.592    3558991.305     -51.970    1262.107      -3.611
2021/07/15 08:49:58.000   34.136341991  117.139033872     29.4831   1  10   -2410673.214    4702965.060    3558991.023     -52.287    1272.328      -3.645
2021/07/15 08:49:59.000   34.136339004  117.139145925     29.4466   1  10   -2410682.482    4702960.484    3558990.728     -52.620    1282.663      -3.680
2021/07/15 08:50:00.000   34.136336102  117.139258898     29.4119   1   9   -2410691.825    4702955.866    3558990.442     -52.943    1293.084      -3.712
2021/07/15 08:50:01.000   34.136333400  117.139371945     29.3827   1   9   -2410701.170    4702951.238    3558990.178     -53.244    1303.511      -3.739
2021/07/15 08:50:02.000   34.136330929  117.139483469     29.3483   1   9   -2410710.381    4702946.657    3558989.932     -53.520    1313.797      -3.772
2021/07/15 08:50:03.000   34.136328543  117.139593289     29.3209   1   9   -2410719.453    4702942.149    3558989.697     -53.786    1323.927      -3.797
2021/07/15 08:50:04.000   34.136326214  117.139701436     29.2707   1   9   -2410728.377    4702937.690    3558989.455     -54.046    1333.902      -3.845
2021/07/15 08:50:05.000   34.136323829  117.139807977     29.2363   1   9   -2410737.176    4702933.314    3558989.217     -54.312    1343.729      -3.877
2021/07/15 08:50:06.000   34.136321239  117.139913105     29.2152   1   9   -2410745.871    4702929.019    3558988.967     -54.600    1353.426      -3.896
2021/07/15 08:50:07.000   34.136317143  117.140018227     29.1744   1   9   -2410754.601    4702924.793    3558988.569     -55.056    1363.122      -3.935
2021/07/15 08:50:08.000   34.136311682  117.140123621     29.1489   1   9   -2410763.397    4702920.642    3558988.053     -55.663    1372.843      -3.959
2021/07/15 08:50:09.000   34.136305822  117.140229388     29.1138   1   9   -2410772.232    4702916.491    3558987.495     -56.315    1382.599      -3.992
2021/07/15 08:50:10.000   34.136299895  117.140335726     29.0569   1   9   -2410781.107    4702912.303    3558986.919     -56.974    1392.407      -4.046
2021/07/15 08:50:11.000   34.136294687  117.140442694     29.0189   1   9   -2410790.020    4702908.062    3558986.419     -57.553    1402.273      -4.082
2021/07/15 08:50:12.000   34.136291010  117.140550182     29.0888   1   9   -2410798.974    4702903.795    3558986.121     -57.963    1412.188      -4.009
2021/07/15 08:50:13.000   34.136288055  117.140657416     29.0421   1   8   -2410807.842    4702899.412    3558985.824     -58.292    1422.078      -4.055
2021/07/15 08:50:14.000   34.136285853  117.140764725     29.0754   1   8   -2410816.725    4702895.043    3558985.640     -58.537    1431.976      -4.019
2021/07/15 08:50:15.000   34.136283931  117.140871725     29.1034   1   9   -2410825.573    4702890.668    3558985.479     -58.752    1441.846      -3.989
2021/07/15 08:50:16.000   34.136281982  117.140978278     29.1499   1   9   -2410834.392    4702886.327    3558985.327     -58.970    1451.674      -3.940
2021/07/15 08:50:17.000   34.136280045  117.141084289     29.1688   1   8   -2410843.155    4702881.988    3558985.159     -59.187    1461.452      -3.918
2021/07/15 08:50:18.000   34.136277959  117.141189916     29.2136   1   9   -2410851.902    4702877.692    3558984.993     -59.420    1471.195      -3.870
2021/07/15 08:50:19.000   34.136275857  117.141295151     29.2317   1   9   -2410860.606    4702873.393    3558984.810     -59.654    1480.901      -3.850
2021/07/15 08:50:20.000   34.136273450  117.141400056     29.2490   1   9   -2410869.291    4702869.125    3558984.599     -59.923    1490.577      -3.831
2021/07/15 08:50:21.000   34.136270699  117.141504292     29.2675   1   9   -2410877.932    4702864.905    3558984.357     -60.230    1500.192      -3.809
2021/07/15 08:50:22.000   34.136267811  117.141605942     29.3006   1   9   -2410886.370    4702860.813    3558984.110     -60.552    1509.567      -3.774
2021/07/15 08:50:23.000   34.136264960  117.141705658     29.2882   1   9   -2410894.631    4702856.765    3558983.841     -60.869    1518.765      -3.785
2021/07/15 08:50:24.000   34.136261896  117.141807867     29.3214   1   9   -2410903.120    4702852.659    3558983.579     -61.211    1528.193      -3.749
2021/07/15 08:50:25.000   34.136258676  117.141912783     29.3575   1   9   -2410911.837    4702848.449    3558983.303     -61.570    1537.870      -3.711
2021/07/15 08:50:26.000   34.136255613  117.142020282     29.4112   1   9   -2410920.768    4702844.135    3558983.052     -61.911    1547.785      -3.655
2021/07/15 08:50:27.000   34.136252571  117.142130712     29.3885   1   9   -2410929.909    4702839.640    3558982.760     -62.250    1557.971      -3.675
2021/07/15 08:50:28.000   34.136249605  117.142243850     29.3788   1   9   -2410939.276    4702835.036    3558982.482     -62.581    1568.406      -3.682
2021/07/15 08:50:29.000   34.136247527  117.142358700     29.3610   1   9   -2410948.756    4702830.306    3558982.282     -62.812    1579.000      -3.699
2021/07/15 08:50:30.000   34.136246592  117.142471311     29.3629   1   9   -2410958.026    4702825.620    3558982.197     -62.919    1589.386      -3.693
2021/07/15 08:50:31.000   34.136245935  117.142579820     29.2853   1   9   -2410966.922    4702821.034    3558982.093     -62.993    1599.395      -3.768
2021/07/15 08:50:32.000   34.136245344  117.142686782     29.2610   1   9   -2410975.709    4702816.547    3558982.025     -63.060    1609.261      -3.791
2021/07/15 08:50:33.000   34.136244282  117.142792338     29.1996   1  10   -2410984.380    4702812.119    3558981.893     -63.179    1618.997      -3.850
2021/07/15 08:50:34.000   34.136242906  117.142898748     29.1511   1  10   -2410993.134    4702807.682    3558981.740     -63.333    1628.812      -3.896
2021/07/15 08:50:35.000   34.136241322  117.143007359     29.1063   1  10   -2411002.077    4702803.167    3558981.569     -63.511    1638.830      -3.938
2021/07/15 08:50:36.000   34.136239584  117.143117804     29.0717   1  10   -2411011.179    4702798.590    3558981.390     -63.705    1649.017      -3.970
2021/07/15 08:50:37.000   34.136237469  117.143229710     29.0389   1  10   -2411020.412    4702793.974    3558981.177     -63.942    1659.339      -4.000
2021/07/15 08:50:38.000   34.136235191  117.143342721     29.0079   1  10   -2411029.741    4702789.322    3558980.951     -64.197    1669.763      -4.028
2021/07/15 08:50:39.000   34.136233803  117.143454932     28.9258   1  10   -2411038.959    4702784.616    3558980.777     -64.352    1680.113      -4.107
2021/07/15 08:50:40.000   34.136233607  117.143567187     28.8394   1  10   -2411048.146    4702779.840    3558980.711     -64.376    1690.467      -4.191
2021/07/15 08:50:41.000   34.136233528  117.143685023     28.7874   1  10   -2411057.800    4702774.847    3558980.674     -64.386    1701.336      -4.240
2021/07/15 08:50:42.000   34.136233095  117.143809141     28.6966   1  10   -2411067.966    4702769.581    3558980.584     -64.437    1712.784      -4.328
2021/07/15 08:50:43.000   34.136230643  117.143938924     28.7032   1  10   -2411078.690    4702764.260    3558980.362     -64.711    1724.755      -4.318
2021/07/15 08:50:44.000   34.136227936  117.144068723     28.6244   1  10   -2411089.391    4702758.890    3558980.070     -65.013    1736.727      -4.394
2021/07/15 08:50:45.000   34.136225626  117.144195575     28.5775   1  10   -2411099.851    4702753.645    3558979.831     -65.272    1748.427      -4.437
2021/07/15 08:50:46.000   34.136223206  117.144317663     28.5428   1  10   -2411109.927    4702748.616    3558979.589     -65.542    1759.688      -4.469
2021/07/15 08:50:47.000   34.136220218  117.144437371     28.5096   1  10   -2411119.825    4702743.720    3558979.296     -65.876    1770.730      -4.499
2021/07/15 08:50:48.000   34.136217434  117.144555540     28.4359   1  10   -2411129.575    4702738.847    3558979.000     -66.187    1781.629      -4.570
2021/07/15 08:50:49.000   34.136214752  117.144672380     28.3655   1  10   -2411139.215    4702734.027    3558978.714     -66.486    1792.406      -4.637
2021/07/15 08:50:50.000   34.136211858  117.144787721     28.3139   1  10   -2411148.745    4702729.295    3558978.419     -66.809    1803.045      -4.686
2021/07/15 08:50:51.000   34.136208998  117.144901519     28.2746   1  10   -2411158.151    4702724.636    3558978.134     -67.129    1813.541      -4.722
2021/07/15 08:50:52.000   34.136206362  117.145013701     28.2337   1  10   -2411167.418    4702720.031    3558977.869     -67.423    1823.889      -4.760
2021/07/15 08:50:53.000   34.136204028  117.145124364     28.1873   1  10   -2411176.550    4702715.469    3558977.629     -67.684    1834.096      -4.803
2021/07/15 08:50:54.000   34.136201702  117.145233439     28.2094   1  10   -2411185.577    4702711.024    3558977.428     -67.944    1844.157      -4.778
2021/07/15 08:50:55.000   34.136199419  117.145342719     28.2447   1  10   -2411194.625    4702706.577    3558977.238     -68.199    1854.236      -4.740
2021/07/15 08:50:56.000   34.136197278  117.145453736     28.2708   1  10   -2411203.808    4702702.043    3558977.056     -68.439    1864.476      -4.711
2021/07/15 08:50:57.000   34.136195416  117.145566577     28.3197   1  10   -2411213.141    4702697.434    3558976.913     -68.647    1874.884      -4.659
2021/07/15 08:50:58.000   34.136193245  117.145681274     28.3671   1  10   -2411222.634    4702692.762    3558976.740     -68.890    1885.463      -4.609
2021/07/15 08:50:59.000   34.136190798  117.145797709     28.4136   1  10   -2411232.278    4702688.032    3558976.541     -69.164    1896.203      -4.559
2021/07/15 08:51:00.000   34.136188046  117.145915977     28.4408   1  10   -2411242.074    4702683.227    3558976.304     -69.471    1907.112      -4.529
2021/07/15 08:51:01.000   34.136185191  117.146036003     28.4737   1  10   -2411252.019    4702678.358    3558976.060     -69.790    1918.183      -4.493
2021/07/15 08:51:02.000   34.136182419  117.146157727     28.4836   1  10   -2411262.092    4702673.396    3558975.811     -70.100    1929.410      -4.479
2021/07/15 08:51:03.000   34.136180006  117.146280941     28.5295   1  10   -2411272.291    4702668.378    3558975.616     -70.370    1940.775      -4.430
2021/07/15 08:51:04.000   34.136177508  117.146405304     28.5635   1  10   -2411282.582    4702663.308    3558975.405     -70.649    1952.246      -4.392
2021/07/15 08:51:05.000   34.136174759  117.146530239     28.6395   1  10   -2411292.943    4702658.258    3558975.196     -70.957    1963.769      -4.312
2021/07/15 08:51:06.000   34.136171979  117.146655460     28.7280   1  10   -2411303.333    4702653.207    3558974.990     -71.268    1975.319      -4.220
2021/07/15 08:51:07.000   34.136169386  117.146780890     28.7963   1  10   -2411313.727    4702648.123    3558974.790     -71.557    1986.889      -4.149
2021/07/15 08:51:08.000   34.136166876  117.146906741     28.8378   1  10   -2411324.144    4702642.996    3558974.583     -71.838    1998.497      -4.104
